t,truth_x,truth_y,truth_z,truth_roll,truth_pitch,truth_yaw,ekf_x,ekf_y,ekf_z,ekf_vx,ekf_vy,ekf_vz,ekf_roll,ekf_pitch,ekf_yaw,esekf_x,esekf_y,esekf_z,esekf_vx,esekf_vy,esekf_vz,esekf_roll,esekf_pitch,esekf_yaw,inekf_x,inekf_y,inekf_z,inekf_vx,inekf_vy,inekf_vz,inekf_roll,inekf_pitch,inekf_yaw
0.000000,0.000000,0.000000,0.000000,0.000000,0.000000,0.000000,0.001503,0.094752,0.006383,-0.002265,1.069131,0.180427,-0.119579,0.081533,-0.054094,0.001822,0.103176,0.005843,-0.003275,1.048282,0.181728,-0.120407,0.080727,-0.054241,0.006723,0.101243,-0.007241,0.001027,1.048579,0.179046,-0.122732,0.076681,-0.059091
0.100000,-0.007768,0.127825,0.031541,0.101547,0.066288,-0.030603,0.006506,0.221915,0.024292,0.023920,1.255440,0.308810,-0.250536,0.135381,-0.110690,0.008458,0.236297,0.020411,0.009797,1.210330,0.328299,-0.249401,0.133769,-0.107190,0.014933,0.231402,0.001807,0.017454,1.211278,0.320677,-0.258411,0.114750,-0.120732
0.200000,-0.011654,0.249424,0.101078,0.190778,0.140925,-0.066931,0.014378,0.358520,0.049889,0.053011,1.378480,0.356747,-0.401478,0.135196,-0.178609,0.017504,0.377776,0.039684,0.011167,1.310944,0.423740,-0.395919,0.131531,-0.168038,0.024616,0.368454,0.015383,0.015857,1.314374,0.408982,-0.411426,0.085357,-0.178769
0.300000,-0.008156,0.360744,0.201223,0.262235,0.217435,-0.111333,0.024761,0.504974,0.078755,0.075132,1.499818,0.347115,-0.513458,0.101647,-0.234931,0.026664,0.527554,0.062636,-0.002754,1.411941,0.473871,-0.502715,0.096819,-0.215343,0.032868,0.513593,0.032226,-0.009011,1.418995,0.449301,-0.519015,0.021625,-0.208448
0.400000,0.005033,0.460374,0.325618,0.317213,0.289765,-0.163107,0.035833,0.661843,0.109743,0.076034,1.598087,0.333719,-0.536051,0.074822,-0.272421,0.034003,0.685925,0.093471,-0.035216,1.498877,0.483252,-0.521666,0.072135,-0.244254,0.037507,0.669419,0.056757,-0.055075,1.508056,0.446840,-0.535704,-0.026269,-0.224003
0.500000,0.027595,0.548631,0.466530,0.362701,0.357205,-0.220233,0.045281,0.825042,0.146456,0.059289,1.636136,0.379657,-0.446015,0.099573,-0.296786,0.038853,0.848799,0.137324,-0.076943,1.546718,0.475667,-0.430709,0.102318,-0.262346,0.039011,0.832951,0.094666,-0.103363,1.556664,0.427828,-0.441817,-0.015749,-0.254571
0.600000,0.057694,0.627024,0.615169,0.411128,0.423709,-0.280801,0.052829,0.984642,0.196737,0.054688,1.568719,0.522771,-0.251391,0.197835,-0.326484,0.050517,1.005394,0.199893,-0.108359,1.529470,0.476376,-0.243798,0.223916,-0.293801,0.043392,0.991582,0.153988,-0.140151,1.540299,0.419509,-0.249008,0.078817,-0.316724
0.700000,0.093480,0.696521,0.766394,0.476062,0.495842,-0.344149,0.057434,1.126766,0.261182,0.083120,1.379224,0.683866,0.016051,0.355034,-0.369163,0.081199,1.138282,0.277486,-0.124597,1.454625,0.456614,-0.003766,0.442868,-0.358362,0.056855,1.120929,0.239004,-0.162386,1.465778,0.402031,0.008123,0.273119,-0.389799
0.800000,0.133153,0.758577,0.914678,0.568804,0.583420,-0.412253,0.063795,1.243580,0.335447,0.152477,1.155847,0.779286,0.307526,0.521773,-0.428572,0.127196,1.242625,0.350006,-0.144786,1.381056,0.381066,0.236726,0.678893,-0.462334,0.083808,1.206986,0.346195,-0.175010,1.396699,0.371786,0.288651,0.529231,-0.433152
0.900000,0.176517,0.816641,1.053807,0.695159,0.693074,-0.487776,0.078320,1.339440,0.418715,0.237691,1.031354,0.796754,0.546208,0.644871,-0.519181,0.167573,1.326171,0.408831,-0.166694,1.386705,0.252434,0.439828,0.827599,-0.582568,0.121828,1.261954,0.461335,-0.184003,1.419904,0.337692,0.517242,0.765904,-0.457665
1.000000,0.226465,0.874852,1.181764,0.852506,0.824194,-0.572904,0.111034,1.432541,0.510668,0.360883,1.101461,0.756467,0.664063,0.695532,-0.635809,0.178618,1.398951,0.499737,-0.172259,1.514233,0.163992,0.588515,0.890354,-0.640663,0.166553,1.323832,0.565306,-0.165230,1.577821,0.286910,0.583354,0.923734,-0.523939
1.100000,0.290256,0.937085,1.298715,1.030785,0.970671,-0.670185,0.159155,1.548680,0.586752,0.490161,1.366765,0.566973,0.613853,0.619517,-0.746280,0.150501,1.484976,0.634861,-0.203933,1.768873,0.143342,0.603914,0.841662,-0.627321,0.199071,1.436941,0.616145,-0.145192,1.843579,0.120814,0.382166,0.911764,-0.705092
1.200000,0.380376,1.004638,1.406657,1.213774,1.119710,-0.780145,0.203820,1.701985,0.600972,0.553495,1.687960,0.025232,0.358206,0.387871,-0.818373,0.133143,1.636667,0.673947,-0.172248,2.072464,-0.087115,0.385046,0.600145,-0.642580,0.171998,1.612637,0.542579,-0.191937,2.073756,-0.314542,0.011446,0.654703,-0.836686
1.300000,0.510975,1.069945,1.508232,1.380572,1.254816,-0.899887,0.208763,1.849449,0.537346,0.465182,1.570335,-0.871663,-0.061521,0.039495,-0.821726,0.124398,1.830541,0.397580,0.073037,2.091817,-0.866585,0.009271,0.057354,-0.734424,-0.009182,1.740550,0.311225,-0.405581,1.918715,-1.019426,-0.426377,0.210874,-0.717914
1.400000,0.687147,1.114587,1.601495,1.508943,1.360745,-1.024904,0.241645,1.901520,0.511153,0.286899,0.732583,-1.449576,-0.560968,-0.306005,-0.797445,0.276361,1.882222,0.144109,0.215828,1.635437,-1.349096,-0.672460,-0.294227,-0.830004,-0.312660,1.674777,0.149130,-0.671958,1.270586,-1.442676,-1.014774,-0.164413,-0.311404
1.500000,0.896656,1.120845,1.681985,1.580030,1.425293,-1.150673,0.218587,1.862461,0.484423,-0.067110,-0.325259,-1.437683,-1.144163,-0.667743,-0.746558,0.490112,1.878647,0.213055,-0.412994,1.168075,-1.050760,-1.637889,0.351780,-1.123480,-0.396946,1.606038,0.368078,-0.632406,0.722464,-1.087961,-1.642583,-0.178441,0.154192
1.600000,1.117801,1.086270,1.748278,1.583769,1.442696,-1.274871,0.072909,1.766639,0.462040,-0.489176,-0.998349,-0.995963,-1.728124,-1.063974,-0.636699,0.688029,1.965074,0.944270,-0.512025,1.297719,-0.168535,-1.993606,0.519986,-1.488884,-0.178846,1.660096,0.748960,-0.287837,0.566149,-0.456767,-2.127582,0.076341,0.486351
1.700000,1.328656,1.021134,1.802786,1.519622,1.412312,-1.396916,-0.094462,1.643096,0.407037,-0.663105,-1.197449,-0.631611,-2.239985,-1.465823,-0.517041,1.193952,2.076950,1.167947,0.077314,1.092512,-0.144211,-2.578184,0.223406,-2.101681,0.143012,1.721867,0.971905,0.001927,0.559133,-0.236173,-2.488142,0.442206,0.703043
1.800000,1.509195,0.938489,1.851122,1.395205,1.336708,-1.515152,-0.236044,1.520369,0.357859,-0.539907,-1.193504,-0.458555,-2.555972,-1.730281,-0.422409,1.483280,2.240303,1.527367,0.401118,1.010178,-0.116764,-2.645208,0.129768,-2.310370,0.429259,1.771945,1.077599,0.025292,0.450920,-0.336340,-2.675928,0.731070,0.815207
1.900000,1.646803,0.848885,1.899641,1.227095,1.225956,-1.628336,-0.293903,1.393432,0.316606,-0.138607,-1.215536,-0.282139,-2.626617,-1.825255,-0.381718,1.551574,2.329774,1.456496,0.374457,0.758780,-0.689671,-2.774594,-0.042228,-2.479425,0.621724,1.772685,1.098779,-0.178023,0.127727,-0.541062,-2.694766,0.856781,0.841923
2.000000,1.736208,0.756218,1.955317,1.038456,1.096678,-1.737773,-0.270519,1.271035,0.293629,0.494494,-1.161500,-0.147139,-2.441264,-1.736955,-0.368738,1.502805,2.446214,1.481232,0.470520,0.727453,-1.064760,-2.517634,0.126083,-2.415285,0.681529,1.710298,1.048450,-0.547883,-0.283760,-0.764955,-2.568581,0.810584,0.754999
2.100000,1.778130,0.658823,2.030050,0.855579,0.967836,-1.845365,-0.192820,1.193799,0.262125,1.181183,-0.727438,-0.320720,-2.052909,-1.473804,-0.363096,1.491655,2.514550,1.391829,0.763105,0.607852,-1.448883,-2.067162,0.375663,-2.343470,0.629647,1.643874,0.944670,-1.014621,-0.445671,-1.030003,-2.318524,0.629765,0.518313
2.200000,1.781125,0.556452,2.137307,0.704283,0.857933,-1.951680,-0.080308,1.196375,0.199673,1.383949,0.191488,-0.660667,-1.547402,-1.126397,-0.385517,1.952309,2.556180,1.436333,1.468035,0.179997,-1.340300,-1.816623,0.850750,-2.687932,0.589551,1.681484,0.849319,-1.320407,-0.042867,-1.265618,-1.943476,0.421313,0.132455
2.300000,1.756528,0.452333,2.285075,0.603246,0.780513,-2.056408,0.075840,1.250319,0.177737,1.053006,1.126987,-0.440974,-0.987554,-0.821216,-0.484600,2.413154,2.466148,1.372792,1.487067,-0.576029,-1.400210,-2.035568,0.892620,2.804911,0.708597,1.837947,0.827549,-1.162285,0.739695,-1.260380,-1.474686,0.333855,-0.363998
2.400000,1.714084,0.351994,2.471520,0.561558,0.744391,-2.160551,0.216127,1.331757,0.236952,0.660132,1.614008,0.259050,-0.497845,-0.601132,-0.590522,2.940622,2.564150,1.784511,1.958201,-0.667771,-0.545704,3.109131,0.934021,1.413483,0.956884,1.989095,0.865348,-0.682327,1.266501,-0.918522,-1.086649,0.440353,-0.842796
2.500000,1.658140,0.260735,2.684255,0.579288,0.752257,-2.266288,0.286454,1.435751,0.324243,0.318819,1.674898,0.783095,-0.159446,-0.411555,-0.688226,3.129743,2.543303,1.832777,1.762714,-0.736123,-0.332488,-2.812427,0.965126,1.552677,1.163646,2.052508,0.883937,-0.287647,1.315605,-0.555389,-0.880653,0.573481,-1.188735
2.600000,1.587797,0.182309,2.906714,0.646545,0.796217,-2.374897,0.334066,1.575764,0.456796,0.114882,1.653915,1.025679,0.040508,-0.348595,-0.770807,3.203364,2.441959,1.786779,1.547648,-0.752355,-0.188828,-2.561080,1.001077,1.644716,1.305844,2.069655,0.886782,-0.074464,1.229529,-0.390534,-0.779609,0.598693,-1.352474
2.700000,1.507189,0.119700,3.120966,0.746881,0.862476,-2.487540,0.331019,1.755592,0.561169,0.055477,1.709025,0.852109,0.043265,-0.412364,-0.814644,3.167995,2.229799,1.450594,1.420918,-0.736264,-0.522919,-2.091514,0.955118,2.017827,1.451057,2.126486,0.903074,-0.008530,1.269314,-0.416612,-0.766369,0.497233,-1.325210
2.800000,1.428330,0.071073,3.312815,0.860094,0.933233,-2.604740,0.318391,1.943026,0.600371,0.196471,1.691095,0.282838,-0.140731,-0.631257,-0.814524,3.163987,2.061150,1.100339,1.508262,-0.523485,-0.917416,-2.006861,0.621237,2.288811,1.572897,2.254038,0.894303,-0.105575,1.368644,-0.633528,-0.875050,0.297959,-1.132192
2.900000,1.362946,0.026881,3.477965,0.963843,0.986218,-2.724642,0.345399,2.091507,0.571252,0.517511,1.293147,-0.413751,-0.447221,-0.951510,-0.796491,3.221222,2.017432,0.859999,1.602091,-0.060296,-1.005715,-2.294126,0.229358,2.407718,1.595365,2.385129,0.814191,-0.374984,1.249101,-0.967554,-1.131311,0.095991,-0.827008
3.000000,1.318268,-0.027417,3.618557,1.040581,1.006169,-2.845671,0.409413,2.167495,0.506996,0.801829,0.512137,-0.787711,-0.804590,-1.271225,-0.756904,3.368715,2.076136,0.813551,1.645642,0.310942,-0.594379,-2.707169,-0.101847,2.376867,1.500244,2.435482,0.693508,-0.673245,0.795005,-1.177909,-1.497638,0.016697,-0.468407
3.100000,1.292514,-0.103962,3.739589,1.080806,0.989446,-2.966319,0.473049,2.171166,0.437574,0.881507,-0.278951,-0.768917,-1.151498,-1.518546,-0.679064,3.541092,2.111280,0.840661,1.684394,0.388222,-0.137882,-3.050057,-0.379368,2.357419,1.351427,2.392924,0.599803,-0.827081,0.208607,-1.143977,-1.855088,0.099289,-0.167406
3.200000,1.276526,-0.205673,3.845751,1.081581,0.939123,-3.083314,0.523605,2.115446,0.372443,0.784511,-0.853963,-0.607480,-1.436100,-1.660844,-0.580296,3.713283,2.096875,0.906696,1.688801,0.283988,0.200696,2.987838,-0.536631,2.374218,1.214745,2.298628,0.564908,-0.818939,-0.276587,-0.936161,-2.125924,0.239269,-0.021036
3.300000,1.263584,-0.329780,3.938476,1.047362,0.865727,3.088484,0.574845,2.014492,0.321388,0.650537,-1.185984,-0.478449,-1.603692,-1.701169,-0.502701,3.879519,2.066880,0.987197,1.642830,0.152419,0.406191,2.852082,-0.579253,2.392698,1.109175,2.186187,0.572641,-0.746640,-0.579151,-0.705703,-2.290706,0.322873,-0.002895
3.400000,1.250044,-0.469703,4.017913,0.988358,0.782596,2.982527,0.635389,1.884789,0.278366,0.589732,-1.319260,-0.430937,-1.616458,-1.648214,-0.462751,4.034249,2.049670,1.068458,1.568150,0.086225,0.512329,2.853011,-0.529286,2.405768,1.015179,2.064772,0.588042,-0.700098,-0.744076,-0.548831,-2.319400,0.320589,-0.062497
3.500000,1.233127,-0.616387,4.084328,0.918716,0.699861,2.881167,0.703974,1.746101,0.226333,0.654162,-1.277653,-0.474692,-1.474171,-1.512510,-0.438339,4.180247,2.066712,1.139883,1.491539,0.118321,0.534353,3.004647,-0.405401,2.425803,0.910153,1.937909,0.576042,-0.713062,-0.807909,-0.505892,-2.200800,0.264008,-0.191138
3.600000,1.211125,-0.762479,4.139062,0.856070,0.627167,2.782732,0.772867,1.627285,0.150499,0.779393,-1.017571,-0.615570,-1.224012,-1.326255,-0.413311,4.320122,2.111282,1.194024,1.409444,0.212932,0.438807,-3.001445,-0.225985,2.443148,0.795203,1.830769,0.521906,-0.755774,-0.736682,-0.566253,-1.965288,0.205493,-0.373390
3.700000,1.182377,-0.900295,4.188195,0.816345,0.572158,2.686908,0.839641,1.548095,0.054629,0.820133,-0.561652,-0.775625,-0.916362,-1.117096,-0.396260,4.450240,2.156278,1.230556,1.321706,0.277438,0.239017,-2.646541,0.015445,2.437527,0.694436,1.774500,0.436260,-0.751180,-0.528264,-0.669592,-1.661615,0.179622,-0.590590
3.800000,1.145969,-1.023077,4.239877,0.809850,0.538208,2.594506,0.902176,1.513006,-0.041120,0.710910,-0.026708,-0.839234,-0.600953,-0.909979,-0.386159,4.571451,2.178328,1.247244,1.241614,0.223606,0.008454,-2.294514,0.295233,2.424927,0.627798,1.773783,0.343338,-0.650442,-0.237922,-0.739466,-1.355104,0.218940,-0.812722
3.900000,1.102872,-1.127375,4.300312,0.841010,0.527572,2.505067,0.952677,1.521908,-0.120316,0.497739,0.447597,-0.747780,-0.345411,-0.737285,-0.368516,4.687753,2.169448,1.246211,1.164370,0.052952,-0.166062,-2.029206,0.538431,2.431632,0.596747,1.809577,0.263298,-0.461160,0.049498,-0.727368,-1.121529,0.315559,-0.984562
4.000000,1.055333,-1.209316,4.375439,0.906552,0.539406,2.419068,0.985966,1.571806,-0.178981,0.284956,0.776249,-0.569793,-0.189923,-0.620464,-0.354363,4.799359,2.133383,1.236142,1.094328,-0.145358,-0.257474,-1.881115,0.699847,2.438594,0.593206,1.862044,0.199321,-0.251918,0.270113,-0.662274,-0.991716,0.403140,-1.089208
4.100000,1.006501,-1.265757,4.467167,0.996615,0.568278,2.337362,1.004409,1.655727,-0.222720,0.138545,0.977329,-0.417924,-0.142452,-0.567868,-0.353633,4.905667,2.082159,1.219163,1.045766,-0.309430,-0.304079,-1.848160,0.773346,2.430886,0.606352,1.925776,0.143991,-0.076211,0.434337,-0.601455,-0.963125,0.439290,-1.136309
4.200000,0.960011,-1.297890,4.572145,1.099079,0.607610,2.257761,1.013052,1.764152,-0.260513,0.064561,1.097930,-0.344191,-0.189434,-0.599282,-0.351502,5.008511,2.028232,1.189758,1.015530,-0.426404,-0.342837,-1.908684,0.750462,2.424206,0.626755,2.006467,0.088511,0.050842,0.566317,-0.564449,-1.002941,0.420130,-1.103770
4.300000,0.919428,-1.307382,4.686466,1.201557,0.649091,2.178113,1.018936,1.883416,-0.298612,0.053278,1.149976,-0.357958,-0.296902,-0.705315,-0.342681,5.108175,1.979217,1.154403,1.002241,-0.490654,-0.378421,-2.028887,0.656586,2.421421,0.645250,2.103808,0.028463,0.113914,0.677350,-0.551287,-1.078125,0.366903,-0.998425
4.400000,0.887944,-1.296497,4.806395,1.293896,0.682539,2.098877,1.027618,2.002986,-0.341669,0.085629,1.160629,-0.431265,-0.409550,-0.829478,-0.317147,5.208788,1.935500,1.126379,1.011361,-0.508367,-0.412056,-2.155550,0.556162,2.428494,0.655764,2.211708,-0.036227,0.118502,0.772955,-0.562991,-1.152795,0.328293,-0.870380
4.500000,0.867587,-1.271263,4.929216,1.372696,0.701996,2.020924,1.040499,2.119470,-0.390724,0.114458,1.157967,-0.502169,-0.470254,-0.916460,-0.269186,5.313318,1.894879,1.102271,1.021842,-0.498868,-0.442231,-2.228285,0.499130,2.454762,0.658220,2.323946,-0.102836,0.092555,0.847459,-0.574844,-1.183181,0.333928,-0.773190
4.600000,0.859279,-1.238057,5.053245,1.441654,0.709428,1.945873,1.051736,2.234275,-0.443253,0.079647,1.162181,-0.538553,-0.461989,-0.934804,-0.203396,5.419273,1.856102,1.068822,1.032322,-0.486839,-0.465453,-2.224241,0.507100,2.506468,0.656286,2.436068,-0.166035,0.056971,0.914288,-0.566873,-1.160610,0.386371,-0.738125
4.700000,0.863748,-1.201233,5.177351,1.507081,0.711215,1.876781,1.050170,2.350900,-0.494994,-0.038669,1.174954,-0.528209,-0.366846,-0.860185,-0.140218,5.526564,1.814785,1.018066,1.055857,-0.472202,-0.470787,-2.121518,0.595553,2.571596,0.656820,2.546273,-0.220669,0.021776,0.973259,-0.543054,-1.083918,0.477376,-0.789119
4.800000,0.880567,-1.164361,5.301152,1.577193,0.715663,1.814998,1.030360,2.468368,-0.536565,-0.202469,1.160757,-0.445687,-0.176502,-0.694821,-0.109310,5.637638,1.759430,0.979453,1.086665,-0.442609,-0.416309,-1.926193,0.767271,2.608971,0.669085,2.647521,-0.262975,-0.012039,0.999605,-0.508545,-0.965872,0.593184,-0.933795
4.900000,0.904832,-1.130427,5.423884,1.663515,0.733395,1.758822,1.005844,2.579408,-0.557212,-0.323745,1.123343,-0.318505,0.064390,-0.502336,-0.117126,5.756045,1.678900,1.022828,1.124435,-0.382919,-0.279448,-1.742512,0.989371,2.566842,0.697041,2.733370,-0.293746,-0.056735,1.003276,-0.483750,-0.846876,0.716266,-1.134389
5.000000,0.929211,-1.099958,5.545300,1.774587,0.772297,1.705232,0.987748,2.686837,-0.555028,-0.358169,1.113580,-0.214771,0.286335,-0.345828,-0.151016,5.880687,1.583575,1.169522,1.179880,-0.276053,-0.086299,-1.715565,1.200663,2.398020,0.736742,2.808554,-0.317827,-0.119266,1.022501,-0.492370,-0.771851,0.819921,-1.339909
5.100000,0.948221,-1.069189,5.665838,1.910977,0.832779,1.650724,0.970130,2.800347,-0.547709,-0.318164,1.171499,-0.213187,0.421519,-0.259577,-0.197051,6.008098,1.501694,1.354241,1.276195,-0.117260,0.101133,-1.881540,1.326530,2.126412,0.776310,2.888154,-0.343124,-0.203532,1.096391,-0.550257,-0.758816,0.867768,-1.491937
5.200000,0.957309,-1.030144,5.786429,2.067746,0.909983,1.592340,0.948884,2.923899,-0.565373,-0.209771,1.280042,-0.370805,0.405906,-0.287378,-0.237951,6.140266,1.454510,1.468782,1.420971,0.058254,0.195503,-2.037651,1.303410,1.985925,0.795956,2.988653,-0.383112,-0.310327,1.218863,-0.663227,-0.791884,0.821974,-1.504987
5.300000,0.956924,-0.972158,5.908228,2.232919,0.993548,1.529525,0.946918,3.044419,-0.630448,0.026692,1.293435,-0.703718,0.214147,-0.459375,-0.246943,6.280129,1.451083,1.467860,1.564283,0.250467,0.173945,-2.202814,1.104287,2.005016,0.767498,3.101209,-0.452626,-0.483225,1.286232,-0.829360,-0.872230,0.692591,-1.333812
5.400000,0.956233,-0.886984,6.028656,2.387676,1.067714,1.464118,1.010555,3.143711,-0.709855,0.464402,1.014336,-1.011108,-0.133406,-0.780554,-0.205844,6.417190,1.458740,1.609657,1.594092,0.457918,0.301659,-2.620247,0.812440,1.968525,0.664804,3.166181,-0.549256,-0.714342,1.141616,-0.987594,-1.059823,0.541643,-0.991242
5.500000,0.967254,-0.774597,6.142843,2.513232,1.116873,1.399882,1.071578,3.242399,-0.719495,0.868451,0.500018,-0.878139,-0.591008,-1.190361,-0.091652,6.521452,1.343521,2.007005,1.505205,0.418770,0.617478,-3.120542,0.481063,1.859195,0.521309,3.116288,-0.632950,-0.826460,0.762395,-1.027365,-1.388304,0.481289,-0.494352
5.600000,0.999877,-0.647028,6.246578,2.591546,1.127180,1.342085,1.049845,3.300196,-0.730709,0.958316,0.000934,-0.430966,-1.180213,-1.623511,0.097751,6.583173,1.139371,2.389182,1.353312,0.156786,0.715454,2.712394,0.180194,1.826257,0.438510,2.991361,-0.676477,-0.688116,0.417019,-0.942778,-1.768379,0.622717,0.073317
5.700000,1.055238,-0.525579,6.336511,2.606375,1.088608,1.294583,1.008520,3.279702,-0.788835,0.818600,-0.293482,-0.092915,-1.840812,-2.032709,0.317098,6.624496,0.879799,2.499444,1.233005,-0.043085,0.531799,2.266605,-0.282044,1.824414,0.461331,2.898558,-0.704044,-0.533640,0.341657,-0.876018,-2.074104,0.917509,0.581787
5.800000,1.125748,-0.429151,6.412860,2.551762,1.001213,1.258531,1.013789,3.231863,-0.823854,0.744815,-0.313124,0.076280,-2.385155,-2.307479,0.500578,6.660402,0.628712,2.441523,1.269304,-0.028061,0.235762,1.983456,-0.670316,1.812491,0.534663,2.866488,-0.734227,-0.646732,0.292525,-0.865598,-2.321196,1.193802,0.910674
5.900000,1.205818,-0.370523,6.476472,2.434805,0.875497,1.234545,1.078148,3.188481,-0.820756,0.850849,-0.166544,0.314614,-2.660981,-2.367978,0.614042,6.723010,0.450729,2.378212,1.472755,0.074256,0.006826,1.912169,-0.809525,1.785423,0.594934,2.857894,-0.757050,-0.914356,0.027898,-0.818782,-2.687585,1.307055,0.817779
6.000000,1.298303,-0.354732,6.526084,2.274530,0.730405,1.221988,1.184483,3.181759,-0.778491,1.063525,0.182484,0.566407,-2.601112,-2.206173,0.669937,6.825695,0.393983,2.396225,1.779953,0.195783,-0.091134,2.005041,-0.658990,1.838930,0.601209,2.808982,-0.798430,-1.201905,-0.347157,-0.779447,-2.949378,1.166144,0.482795
6.100000,1.411953,-0.376734,6.565681,2.101806,0.590352,1.217521,1.276402,3.269599,-0.718608,1.086527,0.891354,0.475041,-2.208595,-1.863038,0.691310,6.970251,0.402184,2.352965,2.028902,0.365279,-0.308064,2.401830,-0.335861,1.866080,0.574340,2.755974,-0.931361,-1.491687,-0.509763,-0.909874,-2.787214,0.823315,0.207402
6.200000,1.553075,-0.427049,6.605650,1.952170,0.477105,1.217738,1.405038,3.437866,-0.550068,0.383092,1.462325,0.118102,-1.516676,-1.510106,0.629271,7.128278,0.339405,2.180977,2.062338,0.212781,-0.736008,2.904667,-0.007677,1.769304,0.670350,2.892512,-1.143373,-1.551354,-0.114838,-1.192992,-2.336841,0.414758,-0.184602
6.300000,1.717924,-0.497406,6.655962,1.856262,0.405887,1.220830,1.636280,3.478804,-0.307861,-0.485213,1.250835,0.155984,-0.762516,-1.204378,0.426238,7.225626,0.226819,1.944811,1.815576,-0.023224,-0.904330,-2.960408,0.044209,1.743779,0.965133,3.205510,-1.271909,-1.169792,0.567614,-1.269309,-1.687604,0.177968,-0.714238
6.400000,1.892974,-0.582465,6.719282,1.833398,0.383808,1.224795,1.730019,3.489680,-0.074071,-1.028084,0.811966,0.468611,-0.097883,-0.981928,0.276725,7.281145,0.039494,1.796237,1.449488,-0.406953,-0.872490,-2.523480,0.138043,1.640756,1.193585,3.392399,-1.255588,-0.742751,0.861857,-0.972412,-1.087990,0.210049,-1.166734
6.500000,2.062873,-0.676622,6.789249,1.886021,0.405927,1.226780,1.715708,3.469357,0.030554,-1.130330,0.431953,0.514541,0.334129,-0.799072,0.155121,7.286716,-0.136290,1.703163,1.189105,-0.678223,-0.610673,-2.207677,0.202711,1.533383,1.258201,3.403646,-1.209249,-0.614438,0.821471,-0.731878,-0.697738,0.296822,-1.405032
6.600000,2.211419,-0.771343,6.859242,2.000245,0.459114,1.224510,1.597606,3.498623,0.098291,-1.129376,0.423215,0.323254,0.509353,-0.772758,0.106646,7.272926,-0.225222,1.558637,1.215789,-0.701922,-0.406675,-2.069112,0.120994,1.543730,1.314108,3.398187,-1.180851,-0.586362,0.840747,-0.809019,-0.541208,0.281372,-1.459356
6.700000,2.323502,-0.854908,6.931929,2.150429,0.527235,1.218023,1.451006,3.554410,0.054933,-0.900123,0.727652,-0.132708,0.306471,-0.940917,0.125009,7.295800,-0.152010,1.302576,1.567978,-0.342238,-0.411621,-2.270622,-0.217699,1.743847,1.370369,3.420798,-1.234834,-0.625248,0.875691,-1.171496,-0.707615,0.090931,-1.338339
6.800000,2.394996,-0.912139,7.018192,2.301982,0.588845,1.209710,1.439318,3.624352,-0.009382,-0.054651,0.957066,-0.591541,-0.230171,-1.365439,0.163112,7.395919,-0.099827,1.185340,1.917637,-0.107896,-0.074084,-2.938977,-0.714703,1.942444,1.269962,3.344382,-1.381680,-0.962122,0.536877,-1.548684,-1.294652,-0.140585,-0.920854
6.900000,2.434146,-0.928549,7.129494,2.417116,0.618182,1.203266,1.534580,3.667192,-0.033331,0.972283,0.473159,-0.293411,-1.001948,-1.968394,0.252515,7.469868,-0.226940,1.157822,1.963263,-0.376495,0.240524,2.896895,-1.130524,1.883949,0.984040,3.145503,-1.392622,-1.377298,-0.261369,-1.254385,-2.190848,0.083773,-0.297963
7.000000,2.453601,-0.899504,7.270288,2.463360,0.591590,1.203321,1.413684,3.616982,-0.251218,1.060200,-0.455254,-0.042711,-2.040939,-2.617083,0.568796,7.480924,-0.382653,1.155112,1.631850,-0.616567,0.355120,2.888388,-1.356374,1.321088,0.924570,3.163103,-1.326263,-1.076136,-0.573271,-0.522279,-3.050355,0.738718,-0.090530
7.100000,2.458844,-0.837589,7.434252,2.419907,0.495773,1.213674,1.564001,3.587812,-0.208360,0.964490,-0.649425,-0.636622,-2.786678,3.131043,0.592970,7.417691,-0.506968,0.919288,1.148145,-0.752996,0.057389,-1.411930,-1.058707,-1.247314,1.147141,3.412033,-1.485322,-0.461288,-0.199135,-0.399276,1.779532,1.113413,-0.839813
7.200000,2.443431,-0.768631,7.606865,2.281367,0.334588,1.234287,1.706520,3.593857,-0.152770,0.754273,-0.240668,-0.842167,2.953464,2.794123,0.579407,7.312523,-0.564729,0.780775,0.863310,-0.657415,-0.031996,-2.295813,-1.230225,-0.863696,1.372707,3.632184,-1.716828,-0.235155,0.026854,-0.586215,0.620138,0.870312,-1.424167
7.300000,2.401911,-0.717271,7.766509,2.057486,0.124578,1.263328,1.783406,3.614018,-0.192141,0.590149,0.027598,-0.732660,2.570072,2.626853,0.628744,7.206335,-0.593515,0.725790,0.839353,-0.553953,-0.138859,-2.637032,-1.308866,-0.837943,1.517513,3.792171,-1.906123,-0.212158,-0.046392,-0.520987,0.195456,0.652218,-1.423703
7.400000,2.345099,-0.695242,7.892354,1.770460,-0.115358,1.300717,1.834281,3.627706,-0.266162,0.562349,-0.084057,-0.503944,2.472339,2.598400,0.714886,7.131009,-0.637896,0.724753,1.005205,-0.664715,-0.216124,-2.568064,-1.318194,-0.922322,1.617321,3.906067,-2.023474,-0.128930,-0.220179,-0.144701,0.159769,0.594822,-1.328367
7.500000,2.299559,-0.702475,7.979086,1.452723,-0.367902,1.346884,1.891649,3.606188,-0.301410,0.633147,-0.456062,-0.059171,2.742847,2.720041,0.817277,7.140450,-0.696218,0.708069,1.382831,-0.792405,-0.370036,-2.393590,-1.237385,-0.710821,1.682030,3.956588,-2.037040,-0.062292,-0.467137,0.429018,0.536203,0.670909,-1.164009
7.600000,2.291576,-0.738393,8.044423,1.142243,-0.617091,1.402574,1.954653,3.564106,-0.232592,0.544404,-0.520647,0.788156,-2.963720,3.037355,0.917468,7.214849,-0.692043,0.641974,1.840776,-0.497116,-0.657778,-1.839575,-0.911100,-0.572868,1.699619,3.935449,-1.985136,-0.293195,-0.899358,0.865150,1.416874,0.749054,-0.715741
7.700000,2.325434,-0.815439,8.113570,0.874988,-0.844907,1.469986,1.986175,3.577973,-0.096895,0.021448,0.278289,1.298958,-2.232578,-2.795172,0.996341,7.200811,-0.763179,0.850694,2.119258,-0.308491,-0.007868,-0.904668,-0.466579,-1.058383,1.745085,3.950950,-2.014862,-0.792516,-1.371201,0.519320,2.554183,0.398697,-0.158734
7.800000,2.388106,-0.951610,8.190640,0.677482,-1.029796,1.549645,1.986150,3.552101,0.073250,-1.037772,0.817505,0.695514,-1.433023,-2.296934,0.909745,7.222149,-0.725104,0.500096,1.980511,0.255002,-0.404563,-0.774401,0.785624,-1.220563,1.906827,4.093581,-2.116841,-0.884174,-1.246406,-0.448216,-2.809549,-0.314180,-0.146559
7.900000,2.471516,-1.150107,8.260862,0.563585,-1.153183,1.638698,1.955053,3.442781,0.170281,-1.690411,0.523626,0.015138,-0.683307,-1.687707,0.654243,7.292766,-0.635463,-0.076030,1.970674,0.391884,-1.212804,-2.859159,0.784904,2.957637,2.009834,4.020544,-2.150087,-0.484710,-0.576126,-0.653125,-1.703578,-0.781929,-0.765435
8.000000,2.577359,-1.391551,8.309970,0.536133,-1.204686,1.732486,1.804537,3.307922,0.319077,-2.039543,-0.195705,0.156192,-0.061872,-1.340463,0.487095,7.440238,-0.257691,-0.223515,1.730226,0.785054,-0.964425,3.041161,0.667502,2.558957,1.918919,3.651108,-2.089072,-0.234547,-0.068622,-0.089324,-0.604405,-0.695197,-1.501204
8.100000,2.711335,-1.641444,8.337272,0.587341,-1.184556,1.824556,1.620395,3.179324,0.435049,-1.960845,-0.680291,0.298839,0.391138,-1.071986,0.297299,7.626181,-0.058244,-0.156106,1.549856,0.668772,-0.377006,3.047718,0.645172,2.489985,1.759583,3.347577,-1.920717,-0.253584,0.176072,0.306095,-0.010003,-0.451588,-1.793290
8.200000,2.872206,-1.865403,8.352355,0.698906,-1.107702,1.908668,1.414453,3.067540,0.508562,-1.828161,-0.789937,0.233090,0.623890,-0.957404,0.161341,7.768201,0.054322,-0.272109,1.281998,0.534506,-0.111723,-3.029235,0.720101,2.670124,1.635033,3.230461,-1.732750,-0.211947,0.275549,0.272302,0.260278,-0.341440,-1.918180
8.300000,3.040458,-2.040445,8.359618,0.846267,-1.000136,1.982016,1.224104,2.992823,0.520121,-1.625511,-0.493236,-0.061174,0.621043,-1.025103,0.097363,7.874869,0.154767,-0.485865,0.909841,0.698439,0.028030,-2.911102,0.675899,2.893623,1.606002,3.248757,-1.605780,0.024640,0.253677,-0.066478,0.316465,-0.410447,-2.033270
8.400000,3.184219,-2.165528,8.354895,1.003994,-0.889020,2.045896,1.082828,2.973762,0.479869,-1.167220,0.003608,-0.493763,0.446648,-1.252330,0.091833,7.940615,0.267040,-0.696049,0.477869,1.000954,0.193845,-3.004356,0.454054,3.123917,1.661382,3.309363,-1.579227,0.277449,0.059424,-0.574014,0.213003,-0.646073,-2.132546
8.500000,3.277902,-2.261619,8.334452,1.150931,-0.795955,2.105377,1.020748,3.006259,0.406767,-0.362920,0.426466,-0.782217,0.168794,-1.559231,0.132854,7.993250,0.342915,-0.796155,0.168053,1.105466,0.571730,3.015623,0.150393,-2.988839,1.720510,3.332781,-1.640338,0.247640,-0.316298,-1.054079,-0.079259,-0.973586,-2.109717
8.600000,3.312100,-2.356264,8.301563,1.273849,-0.733497,2.166838,1.048818,3.061823,0.340412,0.543900,0.581621,-0.641366,-0.158408,-1.874266,0.201716,8.084179,0.337434,-0.770280,0.159139,0.988476,1.018691,2.753383,-0.138067,-2.891433,1.698161,3.289725,-1.726747,-0.153605,-0.711115,-1.258389,-0.876172,-1.257433,-1.618424
8.700000,3.293170,-2.468011,8.265493,1.365775,-0.705565,2.234572,1.144479,3.107310,0.307884,1.200850,0.433013,-0.181122,-0.492390,-2.143555,0.291643,8.221268,0.287257,-0.672513,0.331093,0.791584,1.326546,2.552182,-0.353724,-2.849070,1.577226,3.210181,-1.773907,-0.711513,-0.929979,-1.097374,-2.168355,-1.201907,-0.643042
8.800000,3.236699,-2.604095,8.233836,1.423727,-0.710513,2.309947,1.276460,3.121309,0.309401,1.515415,0.093739,0.264592,-0.798792,-2.333756,0.393803,8.379023,0.243923,-0.548105,0.534268,0.546989,1.464740,2.394658,-0.496490,-2.856289,1.401900,3.141241,-1.760159,-1.144704,-0.915470,-0.709766,-2.701343,-0.994374,-0.414683
8.900000,3.159750,-2.763262,8.208467,1.448864,-0.742356,2.391688,1.428460,3.101437,0.343000,1.614882,-0.244069,0.491060,-1.012088,-2.435334,0.472716,8.539997,0.208442,-0.422435,0.694964,0.319458,1.452559,2.299532,-0.568548,-2.893330,1.218503,3.108372,-1.706547,-1.343562,-0.759821,-0.346518,-2.931635,-0.872800,-0.417525
9.000000,3.078602,-2.936539,8.187205,1.446989,-0.791403,2.477390,1.591537,3.060280,0.395741,1.604826,-0.416190,0.537057,-1.097312,-2.448994,0.518513,8.689308,0.170033,-0.298870,0.764206,0.186148,1.343856,2.286868,-0.560508,-2.918114,1.040896,3.105637,-1.642685,-1.366570,-0.595460,-0.146363,-2.995015,-0.851991,-0.464503
9.100000,3.007081,-3.112222,8.166112,1.429139,-0.846590,2.565849,1.754988,3.015826,0.450076,1.516364,-0.374482,0.484461,-1.071607,-2.388685,0.549994,8.817898,0.135036,-0.178422,0.745909,0.171238,1.179265,2.350097,-0.487882,-2.905264,0.866400,3.114757,-1.589305,-1.280973,-0.486706,-0.123255,-2.909825,-0.905545,-0.543023
9.200000,2.954751,-3.277913,8.142685,1.408337,-0.898971,2.657234,1.905625,2.987365,0.491358,1.330871,-0.144612,0.333904,-0.958641,-2.262296,0.578774,8.922471,0.117605,-0.069893,0.653928,0.262514,0.951376,2.477581,-0.365165,-2.861166,0.703755,3.121176,-1.566473,-1.087684,-0.430934,-0.255925,-2.661881,-1.008957,-0.695102
9.300000,2.929207,-3.419457,8.117018,1.395200,-0.941972,2.752581,2.027261,2.988279,0.505634,1.000348,0.164491,0.065860,-0.772512,-2.070285,0.624438,9.001460,0.128033,0.013180,0.506942,0.411590,0.643563,2.666800,-0.189198,-2.788010,0.579166,3.123216,-1.589051,-0.754815,-0.383784,-0.466530,-2.139722,-1.108539,-1.058767
9.400000,2.935094,-3.524422,8.089751,1.398729,-0.968382,2.853250,2.101655,3.013130,0.488593,0.500829,0.346887,-0.251507,-0.548146,-1.828539,0.677214,9.054133,0.162698,0.061638,0.371076,0.548132,0.253007,2.894490,0.035784,-2.709185,0.519559,3.121140,-1.644647,-0.290070,-0.295327,-0.616967,-1.394262,-1.090545,-1.621100
9.500000,2.970730,-3.583024,8.062039,1.425572,-0.971808,2.959902,2.118168,3.036814,0.450003,-0.077689,0.263361,-0.476951,-0.333402,-1.553834,0.714726,9.098650,0.211941,0.070613,0.362859,0.640434,-0.153989,3.116741,0.297390,-2.644546,0.528968,3.116228,-1.697544,0.212365,-0.152791,-0.600831,-0.801621,-0.918099,-2.049094
9.600000,3.028636,-3.588551,8.034260,1.476434,-0.948307,3.072337,2.080815,3.035226,0.409594,-0.583286,-0.022000,-0.478996,-0.154780,-1.263576,0.737226,9.169423,0.272908,0.047228,0.498020,0.709070,-0.451130,-2.982479,0.567950,-2.584575,0.585695,3.107465,-1.712815,0.626800,-0.005270,-0.403497,-0.454575,-0.658021,-2.263598
9.700000,3.096055,-3.541663,8.004887,1.547731,-0.894573,-3.094383,2.004817,3.003278,0.389066,-0.911696,-0.328049,-0.274264,-0.011035,-1.009368,0.727000,9.276581,0.345100,0.016092,0.692541,0.770572,-0.571655,-2.842420,0.803034,-2.553537,0.659407,3.093924,-1.676895,0.877828,0.097702,-0.113037,-0.235539,-0.406411,-2.374903
9.800000,3.158375,-3.450601,7.972668,1.635855,-0.810656,-2.976928,1.906326,2.950355,0.395325,-1.067890,-0.536236,-0.031907,0.113882,-0.839771,0.684857,9.405208,0.423111,-0.001543,0.852589,0.804316,-0.523550,-2.746985,0.966159,-2.569845,0.731673,3.083864,-1.600595,0.979227,0.157787,0.136573,-0.075855,-0.226574,-2.444927
9.900000,3.206524,-3.330081,7.936436,1.738420,-0.701903,-2.861044,1.796878,2.885573,0.414476,-1.113149,-0.639638,0.097843,0.214498,-0.771037,0.641282,9.539051,0.500179,-0.004974,0.910499,0.792180,-0.372716,-2.694523,1.030772,-2.607266,0.803206,3.087394,-1.506822,0.999795,0.202569,0.256929,0.037257,-0.150539,-2.486166
10.000000,3.240146,-3.199118,7.896048,1.852623,-0.577293,-2.748958,1.685468,2.816218,0.427045,-1.093877,-0.652490,0.065853,0.289471,-0.790838,0.609971,9.667627,0.570336,-0.004212,0.861085,0.752852,-0.204856,-2.652661,0.997062,-2.635669,0.882480,3.111295,-1.421042,0.996858,0.235159,0.243180,0.121613,-0.174270,-2.516055
10.100000,3.264575,-3.072479,7.854183,1.974943,-0.449203,-2.641130,1.579149,2.750553,0.425079,-1.023065,-0.588040,-0.071057,0.348272,-0.852979,0.601258,9.783277,0.632798,-0.002052,0.743839,0.718456,-0.046567,-2.605281,0.921252,-2.638310,0.969290,3.148375,-1.356391,0.982529,0.239187,0.132757,0.190232,-0.244067,-2.533097
10.200000,3.288002,-2.957575,7.816116,2.104450,-0.327077,-2.534474,1.482664,2.696431,0.403616,-0.910160,-0.456569,-0.264383,0.382241,-0.939286,0.608470,9.880587,0.690687,0.004816,0.591995,0.701364,0.100340,-2.567219,0.824477,-2.622258,1.061830,3.189164,-1.322151,0.951220,0.207634,-0.037632,0.232748,-0.338773,-2.544377
10.300000,3.316642,-2.857207,7.789056,2.241237,-0.213418,-2.426647,1.400447,2.660674,0.361658,-0.762429,-0.269538,-0.455131,0.356984,-1.069098,0.623990,9.957091,0.747303,0.017334,0.437158,0.701976,0.213717,-2.579102,0.688966,-2.596691,1.153439,3.222622,-1.321615,0.892599,0.137132,-0.220639,0.216751,-0.475969,-2.559521
10.400000,3.349775,-2.769470,7.778336,2.380235,-0.111023,-2.317952,1.336719,2.648429,0.303051,-0.571825,-0.038230,-0.607341,0.226720,-1.228535,0.643091,10.013040,0.806375,0.037010,0.288060,0.712516,0.308356,-2.693036,0.525957,-2.566637,1.233519,3.241968,-1.353131,0.790757,0.035770,-0.399092,0.089996,-0.643540,-2.565425
10.500000,3.383488,-2.690751,7.787142,2.511800,-0.024147,-2.207625,1.298052,2.661144,0.236441,-0.308942,0.195660,-0.683159,-0.016827,-1.402550,0.654133,10.051622,0.865713,0.068552,0.168701,0.704141,0.407135,-2.920558,0.345279,-2.544684,1.285366,3.247682,-1.410617,0.625176,-0.059768,-0.552968,-0.175347,-0.827995,-2.537457
10.600000,3.413594,-2.619776,7.816993,2.625025,0.044982,-2.094759,1.290290,2.689256,0.170044,-0.000019,0.337035,-0.665672,-0.341098,-1.567053,0.663262,10.085346,0.915630,0.121380,0.122931,0.661092,0.496762,3.062360,0.176310,-2.531017,1.300220,3.252728,-1.481471,0.416735,-0.099331,-0.643249,-0.598635,-0.991786,-2.417872
10.700000,3.435877,-2.556110,7.863756,2.709084,0.094855,-1.980874,1.311518,2.717389,0.108907,0.265479,0.339492,-0.590579,-0.687192,-1.677168,0.672559,10.123582,0.950699,0.192342,0.141409,0.586196,0.544944,2.747308,0.072583,-2.527383,1.287517,3.268687,-1.550676,0.225566,-0.073508,-0.655399,-1.101411,-1.074072,-2.240610
10.800000,3.448919,-2.498910,7.920618,2.757589,0.127883,-1.867877,1.351969,2.735777,0.053622,0.413523,0.245367,-0.532862,-0.994889,-1.707301,0.682830,10.166420,0.972053,0.266102,0.184921,0.504058,0.531439,2.463216,0.057275,-2.527790,1.264901,3.298715,-1.612479,0.113165,-0.012925,-0.623806,-1.475295,-1.088634,-2.173955
10.900000,3.454074,-2.447037,7.980940,2.771496,0.152459,-1.755951,1.397407,2.744569,0.002241,0.422924,0.147561,-0.523198,-1.226283,-1.646615,0.707764,10.207811,0.986270,0.327328,0.214599,0.457375,0.465689,2.237876,0.128101,-2.506440,1.247268,3.336124,-1.669836,0.098330,0.029100,-0.597288,-1.601101,-1.074242,-2.307067
11.000000,3.452699,-2.398187,8.036985,2.756667,0.178744,-1.643914,1.435654,2.748140,-0.049759,0.331863,0.090368,-0.545863,-1.357319,-1.515121,0.734254,10.244141,1.002774,0.373358,0.218557,0.458771,0.388621,2.100196,0.260492,-2.474217,1.241482,3.368693,-1.728563,0.144542,0.021372,-0.588462,-1.500606,-1.052888,-2.586161
11.100000,3.445234,-2.350262,8.083697,2.721736,0.216038,-1.530661,1.459591,2.749580,-0.104274,0.187233,0.066091,-0.567361,-1.373541,-1.351893,0.750639,10.273189,1.026122,0.408624,0.198359,0.492767,0.329706,2.072730,0.419081,-2.446926,1.248070,3.385888,-1.788240,0.208895,-0.037599,-0.578829,-1.254701,-1.009811,-2.902966
11.200000,3.431177,-2.302321,8.119590,2.677852,0.269663,-1.416352,1.466140,2.751121,-0.161132,0.020862,0.059701,-0.577727,-1.277128,-1.192066,0.758349,10.293927,1.058836,0.439497,0.167347,0.538015,0.299970,2.161602,0.574994,-2.426870,1.266331,3.382248,-1.844793,0.265625,-0.124177,-0.556499,-0.950304,-0.933000,3.121280
11.300000,3.408544,-2.254416,8.145827,2.637561,0.340469,-1.301233,1.456512,2.753479,-0.218039,-0.126921,0.047434,-0.567731,-1.092718,-1.071509,0.744231,10.308808,1.099674,0.470157,0.147537,0.561440,0.298492,2.345504,0.695731,-2.430093,1.294467,3.360588,-1.893356,0.300575,-0.194829,-0.524422,-0.638289,-0.857659,2.954276
11.400000,3.376327,-2.208728,8.167578,2.611834,0.426569,-1.185970,1.434895,2.755684,-0.273307,-0.218919,0.025256,-0.552162,-0.857922,-1.004128,0.709148,10.324544,1.146034,0.502787,0.144050,0.536712,0.329666,2.581242,0.767256,-2.459868,1.330150,3.328356,-1.933959,0.303062,-0.224123,-0.509370,-0.326802,-0.809749,2.849129
11.500000,3.336815,-2.168522,8.191758,2.607861,0.522554,-1.073537,1.409111,2.757798,-0.327409,-0.221007,0.016736,-0.557518,-0.616419,-0.988881,0.663260,10.343756,1.192105,0.538934,0.122577,0.454960,0.401725,2.820180,0.789115,-2.506591,1.367429,3.292520,-1.971055,0.249434,-0.223135,-0.540085,-0.030694,-0.795850,2.771906
11.600000,3.296440,-2.137188,8.225659,2.628867,0.623276,-0.966679,1.388410,2.763026,-0.384069,-0.134435,0.061643,-0.608118,-0.424484,-1.054848,0.620323,10.363324,1.234237,0.582458,0.056967,0.361426,0.505525,3.004656,0.729249,-2.555785,1.394493,3.255358,-2.013227,0.134985,-0.233446,-0.613088,0.214737,-0.852131,2.695025
11.700000,3.263834,-2.117984,8.274875,2.672946,0.723443,-0.865057,1.383358,2.777857,-0.445467,0.030911,0.168877,-0.657077,-0.331619,-1.221843,0.593381,10.380323,1.273863,0.634727,-0.028383,0.299515,0.614437,3.089254,0.568072,-2.590033,1.399031,3.217626,-2.064332,-0.031881,-0.260053,-0.679843,0.408129,-0.998832,2.562916
11.800000,3.244475,-2.112831,8.339001,2.731802,0.811835,-0.767268,1.402180,2.805086,-0.507235,0.264241,0.295121,-0.633748,-0.364032,-1.440541,0.591676,10.394200,1.310110,0.702860,-0.094767,0.270117,0.725824,3.062565,0.355959,-2.595765,1.374735,3.186076,-2.119648,-0.238223,-0.266818,-0.704157,0.580846,-1.188175,2.328563
11.900000,3.241437,-2.121656,8.413864,2.793118,0.879227,-0.671621,1.447960,2.838654,-0.561849,0.517049,0.366072,-0.513473,-0.519247,-1.660970,0.620540,10.415919,1.338277,0.804944,-0.106434,0.266391,0.816747,2.953051,0.147343,-2.573172,1.323607,3.174836,-2.172099,-0.431302,-0.219703,-0.672919,0.872593,-1.373395,1.868889
12.000000,3.255616,-2.142068,8.495558,2.844499,0.924235,-0.575081,1.515053,2.867750,-0.603859,0.700949,0.338774,-0.340361,-0.768236,-1.863499,0.680404,10.460892,1.361170,0.930984,-0.067224,0.277605,0.838908,2.793937,-0.030117,-2.530098,1.262279,3.194456,-2.215232,-0.545107,-0.125474,-0.595170,2.079079,-1.463081,0.419446
12.100000,3.282545,-2.169443,8.578988,2.875734,0.946665,-0.474977,1.593029,2.886198,-0.632623,0.780645,0.234307,-0.199406,-1.061749,-2.016912,0.744671,10.530352,1.382841,1.045809,-0.005447,0.280256,0.788234,2.597780,-0.149407,-2.504569,1.209645,3.242286,-2.247202,-0.562004,-0.027270,-0.502578,2.733768,-1.366863,-0.516016
12.200000,3.315630,-2.198111,8.658997,2.879724,0.949370,-0.370332,1.669397,2.895664,-0.650902,0.758219,0.127595,-0.139166,-1.327517,-2.102403,0.796198,10.607758,1.402081,1.132968,0.044399,0.277903,0.681372,2.402570,-0.204724,-2.499791,1.173598,3.303703,-2.272174,-0.509750,0.026394,-0.432029,2.758077,-1.298663,-0.801060
12.300000,3.348675,-2.223341,8.732754,2.854428,0.939665,-0.261722,1.737805,2.900420,-0.664566,0.675576,0.076383,-0.131474,-1.492611,-2.113120,0.814865,10.672734,1.417249,1.200380,0.062625,0.286662,0.558118,2.275689,-0.195660,-2.512741,1.146840,3.361773,-2.295395,-0.446496,0.023953,-0.396607,2.650540,-1.291590,-0.856792
12.400000,3.375544,-2.243244,8.798130,2.805428,0.924361,-0.151396,1.797139,2.905691,-0.678320,0.575309,0.084972,-0.148689,-1.512292,-2.042104,0.788282,10.714992,1.430285,1.258805,0.061449,0.310272,0.450339,2.271253,-0.113539,-2.550668,1.116945,3.403955,-2.320633,-0.403996,-0.014506,-0.390387,2.385876,-1.332371,-0.604109
12.500000,3.393390,-2.258859,8.854832,2.745667,0.912011,-0.042644,1.847153,2.915596,-0.695723,0.469639,0.135878,-0.188217,-1.385115,-1.923106,0.740130,10.738982,1.446893,1.309657,0.057196,0.347326,0.357561,2.402659,0.011057,-2.598324,1.080036,3.423778,-2.348727,-0.372260,-0.080309,-0.395440,1.948158,-1.361277,-0.027230
12.600000,3.402046,-2.272716,8.904729,2.691352,0.910591,0.061625,1.884558,2.933134,-0.719201,0.338755,0.201997,-0.243746,-1.140462,-1.796162,0.701951,10.753580,1.472178,1.348437,0.061169,0.385542,0.267300,2.647776,0.141263,-2.634378,1.043994,3.417545,-2.378274,-0.324895,-0.162760,-0.393396,1.570209,-1.345609,0.608643
12.700000,3.401862,-2.288490,8.948299,2.656417,0.921859,0.160942,1.907062,2.956675,-0.748549,0.193368,0.234134,-0.298392,-0.815036,-1.679256,0.685415,10.767994,1.505235,1.372429,0.089117,0.399053,0.196654,2.973430,0.262651,-2.652685,1.021515,3.390506,-2.407878,-0.260942,-0.218498,-0.384299,1.402773,-1.313985,1.117380
12.800000,3.395936,-2.307785,8.986891,2.650888,0.945709,0.257408,1.917538,2.979917,-0.781920,0.076875,0.223309,-0.336645,-0.471015,-1.594601,0.675281,10.787879,1.540324,1.386789,0.126006,0.388975,0.164528,-2.965952,0.353973,-2.666240,1.014586,3.356741,-2.438181,-0.206906,-0.238207,-0.374559,1.430464,-1.287196,1.449926
12.900000,3.388948,-2.328589,9.024156,2.681242,0.980922,0.352738,1.919202,3.000157,-0.817376,-0.001228,0.203635,-0.348945,-0.201884,-1.565084,0.668918,10.812497,1.574079,1.397011,0.143802,0.372154,0.146775,-2.698445,0.390102,-2.675466,1.016266,3.324778,-2.469802,-0.168200,-0.245247,-0.352998,1.587478,-1.278257,1.571178
13.000000,3.384070,-2.349605,9.060764,2.745190,1.022260,0.447571,1.915839,3.019643,-0.852013,-0.036767,0.204151,-0.333645,-0.073655,-1.603751,0.659918,10.836764,1.606017,1.404405,0.133587,0.361513,0.129942,-2.571009,0.357317,-2.686137,1.019040,3.294668,-2.499899,-0.152953,-0.254637,-0.314197,1.826698,-1.264360,1.457417
13.100000,3.383218,-2.370439,9.095635,2.829948,1.063684,0.542109,1.912392,3.042388,-0.883621,-0.020701,0.242717,-0.297544,-0.106027,-1.731565,0.638427,10.855661,1.638407,1.409703,0.101587,0.367114,0.114084,-2.602261,0.232581,-2.706942,1.013501,3.263298,-2.524562,-0.165955,-0.275149,-0.260491,2.101413,-1.193636,1.131759
13.200000,3.388776,-2.389446,9.129080,2.919666,1.097762,0.635161,1.915757,3.070856,-0.907902,0.038487,0.297308,-0.219526,-0.287011,-1.962148,0.613323,10.865499,1.673134,1.415484,0.056232,0.378697,0.096599,-2.779267,0.003412,-2.725784,0.994024,3.232849,-2.539406,-0.193390,-0.290401,-0.184911,2.274427,-1.035303,0.737724
13.300000,3.402132,-2.406542,9.160082,2.998371,1.113539,0.725799,1.926724,3.102144,-0.919515,0.115937,0.322849,-0.083101,-0.566228,-2.255046,0.585462,10.869283,1.709186,1.426395,0.009078,0.387187,0.098511,-3.051601,-0.287484,-2.741375,0.965351,3.211807,-2.541774,-0.225216,-0.278040,-0.087722,2.269996,-0.820694,0.393935
13.400000,3.422805,-2.422410,9.187235,3.051641,1.101493,0.813692,1.939522,3.129353,-0.916037,0.169456,0.276657,0.083484,-0.861746,-2.548652,0.561169,10.883103,1.744401,1.443130,-0.011575,0.383309,0.122234,2.953586,-0.576570,-2.759195,0.937722,3.206496,-2.532652,-0.234584,-0.229745,0.013487,2.166595,-0.618125,0.099240
13.500000,3.450113,-2.435055,9.210773,3.073822,1.058205,0.897835,1.948743,3.147221,-0.900198,0.154789,0.186935,0.204870,-1.103894,-2.791718,0.570431,10.915655,1.777641,1.456487,-0.019881,0.365807,0.126419,2.749856,-0.813605,-2.763505,0.919083,3.213824,-2.516180,-0.199068,-0.191225,0.082610,2.057628,-0.492808,-0.157673
13.600000,3.481336,-2.444403,9.229954,3.067614,0.986486,0.979960,1.954586,3.157912,-0.876965,0.090029,0.131191,0.257780,-1.238540,-2.941686,0.612148,10.949576,1.810631,1.463204,-0.055477,0.351088,0.109631,2.660707,-0.957939,-2.745119,0.906682,3.222258,-2.496223,-0.158035,-0.202296,0.114022,2.004647,-0.457884,-0.336621
13.700000,3.512530,-2.453802,9.242843,3.040639,0.893753,1.064478,1.955856,3.167467,-0.850794,0.000667,0.128007,0.266503,-1.228908,-2.992227,0.657625,10.967943,1.843714,1.467823,-0.123316,0.339057,0.087582,2.703368,-1.004648,-2.717542,0.894539,3.222705,-2.475163,-0.136306,-0.252098,0.120450,2.051123,-0.473190,-0.414409
13.800000,3.542205,-2.464004,9.248148,3.006857,0.789995,1.153554,1.948425,3.180990,-0.826562,-0.108641,0.174341,0.227994,-1.092814,-2.961361,0.698874,10.963965,1.873599,1.472350,-0.227426,0.316425,0.045342,2.852298,-0.971493,-2.681779,0.882046,3.210696,-2.457371,-0.129162,-0.337151,0.093343,2.188014,-0.522478,-0.411132
13.900000,3.570411,-2.475628,9.244335,2.981582,0.685413,1.247161,1.928296,3.201159,-0.811264,-0.234476,0.240651,0.125219,-0.874232,-2.874510,0.731396,10.938104,1.893760,1.471961,-0.348824,0.263614,-0.031834,3.071221,-0.880825,-2.645488,0.873781,3.183858,-2.449633,-0.111536,-0.442845,0.028392,2.381665,-0.602231,-0.359973
14.000000,3.598407,-2.491058,9.228261,2.975077,0.587456,1.344420,1.896110,3.224521,-0.810705,-0.351259,0.265687,-0.026139,-0.616905,-2.747747,0.738924,10.907130,1.900402,1.453657,-0.434126,0.178480,-0.139687,-2.942942,-0.747485,-2.647306,0.878792,3.145385,-2.454838,-0.057290,-0.529818,-0.055275,2.589924,-0.706737,-0.271543
14.100000,3.628060,-2.509185,9.198508,2.993365,0.500572,1.443414,1.857437,3.243580,-0.824930,-0.436560,0.221260,-0.171525,-0.372049,-2.584984,0.731152,10.896854,1.896420,1.403144,-0.445029,0.093286,-0.257883,-2.667295,-0.574659,-2.700925,0.903097,3.102917,-2.469645,0.024999,-0.568173,-0.126619,2.769241,-0.851664,-0.160939
14.200000,3.659840,-2.527209,9.157217,3.038362,0.428451,1.542665,1.816526,3.254913,-0.847385,-0.482792,0.137949,-0.250095,-0.184906,-2.419823,0.725862,10.916791,1.889807,1.323082,-0.393078,0.047855,-0.344622,-2.455471,-0.395989,-2.782968,0.943052,3.062291,-2.486920,0.096873,-0.558404,-0.155461,2.899740,-1.014805,-0.067544
14.300000,3.692708,-2.543150,9.108512,3.107008,0.373346,1.641634,1.772947,3.260098,-0.871379,-0.483614,0.071018,-0.246380,-0.060269,-2.277067,0.726498,10.953964,1.885645,1.231243,-0.316624,0.062569,-0.368421,-2.329195,-0.240722,-2.866490,0.990785,3.025091,-2.500891,0.113557,-0.519196,-0.135889,2.984744,-1.164103,-0.003450
14.400000,3.724655,-2.554677,9.059169,-3.090254,0.334621,1.740284,1.729326,3.263582,-0.891533,-0.432544,0.069116,-0.179270,0.005291,-2.163200,0.733665,10.991231,1.887769,1.146568,-0.244792,0.141701,-0.328679,-2.279396,-0.118586,-2.930585,1.034900,2.990466,-2.509002,0.049217,-0.477622,-0.088230,3.034813,-1.285693,0.025297
14.500000,3.754440,-2.560315,9.017805,-2.994175,0.309775,1.838651,1.690056,3.272209,-0.904365,-0.341841,0.142146,-0.082694,-0.002373,-2.088809,0.746814,11.018080,1.900423,1.080676,-0.195992,0.264548,-0.243607,-2.307270,-0.039417,-2.967508,1.063983,2.955803,-2.512158,-0.080968,-0.448161,-0.036254,3.049223,-1.365582,0.007557
14.600000,3.782955,-2.558856,8.991100,-2.894796,0.294911,1.937342,1.662040,3.291165,-0.907101,-0.215618,0.259340,0.028922,-0.069334,-2.056948,0.768891,11.031049,1.925609,1.039129,-0.178870,0.404654,-0.121929,-2.388292,-0.004412,-2.973915,1.070550,2.921835,-2.512016,-0.254065,-0.418924,0.014114,3.090626,-1.401619,-0.101405
14.700000,3.812644,-2.548136,8.981860,-2.799391,0.285315,2.038240,1.649891,3.322691,-0.897503,-0.059856,0.384187,0.157441,-0.160241,-2.064504,0.790263,11.030891,1.964295,1.023432,-0.194112,0.539495,0.031556,-2.486137,-0.012344,-2.964900,1.050895,2.891720,-2.508118,-0.448030,-0.373312,0.071094,3.135546,-1.396422,-0.239788
14.800000,3.845517,-2.525105,8.990525,-2.712948,0.276943,2.141710,1.655654,3.364975,-0.872833,0.104793,0.478204,0.308451,-0.253806,-2.113198,0.801301,11.022741,2.016472,1.032709,-0.225390,0.649414,0.199515,-2.584083,-0.067417,-2.959449,1.004575,2.869129,-2.496035,-0.630008,-0.309347,0.146083,3.110310,-1.348837,-0.311636
14.900000,3.881564,-2.486293,9.015121,-2.635824,0.265890,2.246608,1.674986,3.413125,-0.831392,0.239126,0.520441,0.478893,-0.335028,-2.200480,0.808981,11.020838,2.082599,1.059820,-0.242338,0.732421,0.360073,-2.670860,-0.165132,-2.967027,0.937455,2.854312,-2.469983,-0.772387,-0.241558,0.244822,3.069469,-1.261082,-0.358504
15.000000,3.919261,-2.430168,9.050221,-2.567312,0.247811,2.352868,1.701249,3.461564,-0.772252,0.322506,0.504013,0.660818,-0.397835,-2.313828,0.804659,11.042951,2.163599,1.095169,-0.222963,0.795835,0.500875,-2.732334,-0.285276,-3.010999,0.858379,2.844646,-2.424551,-0.861414,-0.179311,0.368032,3.009532,-1.144359,-0.370582
15.100000,3.955913,-2.356921,9.090940,-2.506536,0.219169,2.459073,1.728824,3.505131,-0.696393,0.350057,0.437367,0.831282,-0.451780,-2.428664,0.796974,11.096139,2.257029,1.132496,-0.170310,0.851348,0.603692,-2.765153,-0.394842,-3.084601,0.777151,2.838797,-2.358892,-0.894077,-0.134063,0.501936,2.955118,-1.024142,-0.383685
15.200000,3.988067,-2.267780,9.133963,-2.451851,0.177980,2.563543,1.757599,3.539980,-0.606274,0.336586,0.344045,0.965306,-0.515521,-2.520065,0.807408,11.169362,2.359405,1.171746,-0.108782,0.896913,0.660529,-2.786933,-0.471898,3.132223,0.699212,2.836235,-2.277112,-0.877065,-0.109569,0.622445,2.919259,-0.930126,-0.430024
15.300000,4.012861,-2.166668,9.175027,-2.403651,0.125170,2.667835,1.790151,3.564052,-0.506733,0.303978,0.242208,1.037695,-0.590315,-2.572762,0.840465,11.247705,2.466488,1.216402,-0.064771,0.915016,0.673107,-2.813979,-0.514184,3.094418,0.625690,2.838859,-2.186324,-0.817176,-0.105695,0.702761,2.898279,-0.879782,-0.506361
15.400000,4.027323,-2.058643,9.211009,-2.363184,0.064480,2.774169,1.824485,3.579091,-0.405028,0.260830,0.161576,1.041922,-0.674511,-2.578790,0.886963,11.313110,2.570014,1.270341,-0.057296,0.901623,0.648885,-2.862775,-0.527337,3.090059,0.556693,2.847367,-2.095001,-0.736395,-0.126078,0.729583,2.877921,-0.878666,-0.594088
15.500000,4.028493,-1.949542,9.239552,-2.330945,-0.000452,2.885050,1.859974,3.589248,-0.305877,0.220752,0.115387,0.995166,-0.767724,-2.535653,0.938227,11.352075,2.662497,1.332836,-0.090014,0.856036,0.605006,-2.936840,-0.512284,3.119733,0.489895,2.862393,-2.010370,-0.652828,-0.156828,0.711765,2.849435,-0.928598,-0.680786
15.600000,4.014794,-1.846398,9.258488,-2.308016,-0.064621,3.002448,1.893410,3.597579,-0.214116,0.172549,0.100046,0.917045,-0.862566,-2.461867,0.990695,11.362898,2.740817,1.397787,-0.160160,0.791916,0.535755,-3.018466,-0.484784,-3.110020,0.426307,2.882555,-1.935807,-0.574880,-0.205338,0.661732,2.818968,-1.008149,-0.763797
15.700000,3.985831,-1.755019,9.268033,-2.294858,-0.122111,3.125333,1.920218,3.606496,-0.130835,0.087293,0.113766,0.828629,-0.959815,-2.389360,1.042248,11.353785,2.808939,1.455933,-0.258620,0.729609,0.423180,-3.098587,-0.463902,-3.050700,0.365727,2.901203,-1.870444,-0.510270,-0.291532,0.588776,2.789594,-1.085567,-0.847005
15.800000,3.942799,-1.681211,9.266283,-2.291503,-0.172487,-3.029184,1.933954,3.618785,-0.053964,-0.027522,0.145401,0.747848,-1.049303,-2.307994,1.073053,11.322829,2.868509,1.498132,-0.365786,0.674793,0.290344,3.113286,-0.418847,-3.009857,0.310194,2.908817,-1.814224,-0.464954,-0.391275,0.520026,2.716913,-1.168319,-0.870512
15.900000,3.888835,-1.629669,9.251015,-2.297897,-0.216719,-2.894412,1.937398,3.635540,0.017644,-0.116033,0.197546,0.693553,-1.127454,-2.207276,1.077779,11.274241,2.922826,1.523191,-0.447675,0.637826,0.173563,3.053681,-0.339062,-2.994967,0.258612,2.904484,-1.762383,-0.446770,-0.462187,0.478081,2.537944,-1.258498,-0.766351
16.000000,3.828067,-1.599215,9.225931,-2.312410,-0.251214,-2.757157,1.930718,3.659451,0.084668,-0.181650,0.265830,0.656083,-1.196232,-2.119517,1.093850,11.217209,2.975323,1.534685,-0.501577,0.620577,0.069456,3.000948,-0.264000,-2.972134,0.206946,2.892432,-1.713095,-0.450549,-0.511746,0.455142,2.324055,-1.336642,-0.619905
16.100000,3.764398,-1.586730,9.193367,-2.334115,-0.275448,-2.618998,1.915030,3.691340,0.148953,-0.229046,0.335817,0.631238,-1.243628,-2.047010,1.109654,11.159008,3.030080,1.531520,-0.530993,0.616287,-0.005755,2.964593,-0.196019,-2.952778,0.154179,2.871668,-1.664764,-0.468207,-0.529555,0.450691,2.044701,-1.394778,-0.387899
16.200000,3.700754,-1.589971,9.153383,-2.362436,-0.292462,-2.479348,1.893789,3.730305,0.211258,-0.228070,0.396224,0.614583,-1.255669,-1.974908,1.115107,11.105789,3.089439,1.516156,-0.536246,0.615488,-0.026169,2.958313,-0.122413,-2.948381,0.100912,2.845829,-1.615621,-0.492449,-0.489667,0.459670,1.604388,-1.422749,0.041407
16.300000,3.637687,-1.603501,9.110887,-2.393933,-0.301708,-2.339067,1.871049,3.773433,0.272930,-0.201650,0.440624,0.606270,-1.233224,-1.926967,1.147276,11.056953,3.151908,1.493141,-0.537904,0.616135,-0.006793,2.984621,-0.069278,-2.921429,0.045401,2.820636,-1.568020,-0.526060,-0.413896,0.470399,1.213754,-1.450072,0.454647
16.400000,3.574057,-1.622251,9.069892,-2.424801,-0.303679,-2.196432,1.851244,3.817572,0.336681,-0.166989,0.469148,0.616354,-1.187290,-1.914412,1.195794,11.010562,3.216743,1.466487,-0.552139,0.615084,0.046854,3.034219,-0.046147,-2.879420,-0.014477,2.797164,-1.522776,-0.569829,-0.313002,0.482048,0.858724,-1.487983,0.856512
16.500000,3.508046,-1.645498,9.032006,-2.452201,-0.302563,-2.048371,1.837373,3.861877,0.403979,-0.100396,0.489643,0.653228,-1.139766,-1.923681,1.236825,10.961854,3.281126,1.445047,-0.582552,0.613217,0.147514,3.085580,-0.041911,-2.845065,-0.078490,2.778231,-1.478244,-0.628798,-0.177890,0.496389,0.412761,-1.520092,1.352835
16.600000,3.436915,-1.673059,9.001784,-2.473970,-0.300888,-1.894512,1.833417,3.907620,0.476605,-0.002749,0.514923,0.718946,-1.115218,-1.962617,1.272192,10.904333,3.341705,1.443969,-0.625720,0.618126,0.284291,3.113739,-0.069559,-2.813589,-0.149535,2.769305,-1.433154,-0.707210,-0.027012,0.512459,-1.051382,-1.551590,2.845312
16.700000,3.358306,-1.706067,8.982970,-2.491190,-0.300497,-1.735958,1.847708,3.952952,0.558054,0.113712,0.515403,0.818984,-1.133275,-2.056758,1.291490,10.845057,3.400995,1.474363,-0.667647,0.627588,0.442223,3.099885,-0.161141,-2.794242,-0.227572,2.771849,-1.384249,-0.790925,0.114479,0.544071,-2.708399,-1.476743,-1.792355
16.800000,3.272160,-1.748845,8.976591,-2.507197,-0.305887,-1.574989,1.883141,3.993157,0.651014,0.246518,0.437685,0.954736,-1.214120,-2.216918,1.280203,10.827577,3.484126,1.526536,-0.666301,0.654135,0.613323,3.030257,-0.334525,-2.817442,-0.309880,2.784821,-1.323251,-0.862105,0.227567,0.611012,-3.040731,-1.317978,-1.534817
16.900000,3.180533,-1.806010,8.982781,-2.526880,-0.324190,-1.413672,1.929760,4.024694,0.748572,0.369523,0.238935,1.080015,-1.355747,-2.424693,1.260226,10.938630,3.645825,1.555028,-0.575046,0.725060,0.765304,2.954797,-0.573096,-2.911302,-0.390879,2.803338,-1.244226,-0.898884,0.286092,0.718928,3.071145,-1.098709,-1.512401
17.000000,3.088625,-1.881297,9.000281,-2.558187,-0.362698,-1.252777,1.979443,4.049737,0.832402,0.457672,-0.044679,1.129142,-1.530558,-2.636375,1.258158,11.192561,3.898836,1.535568,-0.409660,0.849982,0.856023,2.973162,-0.816401,-3.088387,-0.467027,2.817893,-1.145338,-0.903222,0.274707,0.840630,2.941172,-0.859014,-1.588634
17.100000,3.003739,-1.975676,9.028750,-2.607827,-0.425133,-1.092726,2.069735,4.071815,0.887066,0.530673,-0.325440,1.072459,-1.729946,-2.811774,1.265544,11.525001,4.199254,1.500233,-0.240265,0.993701,0.856240,3.094992,-1.005483,2.963072,-0.538597,2.824066,-1.031732,-0.899152,0.191744,0.923585,2.813225,-0.640601,-1.715117
17.200000,2.932510,-2.085975,9.067792,-2.678632,-0.512611,-0.931442,2.191869,4.084047,0.920065,0.559458,-0.532074,0.968420,-1.941981,-2.929671,1.307702,11.847230,4.483722,1.517851,-0.147971,1.118325,0.800925,-3.027199,-1.136545,2.746291,-0.611137,2.823619,-0.915016,-0.930745,0.063870,0.920316,2.684929,-0.488030,-1.881090
17.300000,2.882606,-2.207229,9.114101,-2.772101,-0.623797,-0.764659,2.336398,4.064269,0.959632,0.563607,-0.644648,0.917054,-2.131642,-2.960218,1.383624,12.069707,4.709396,1.590306,-0.164944,1.206451,0.737126,-2.897388,-1.185737,2.612312,-0.691360,2.824829,-0.805134,-1.012770,-0.017666,0.841683,2.576260,-0.446758,-2.029781
17.400000,2.859584,-2.332956,9.164567,-2.886427,-0.750545,-0.589556,2.515628,4.026293,1.012214,0.559657,-0.637713,0.979071,-2.259394,-2.880313,1.468894,12.166307,4.884899,1.656320,-0.297649,1.264483,0.653713,-2.854593,-1.129843,2.623600,-0.781082,2.838486,-0.705179,-1.122936,-0.020229,0.730119,2.521899,-0.517908,-2.117460
17.500000,2.863244,-2.457272,9.217221,-3.014569,-0.880195,-0.405266,2.659902,3.980365,1.098820,0.474108,-0.516305,1.146379,-2.282910,-2.730036,1.526505,12.156980,5.024226,1.697739,-0.509109,1.296314,0.518153,-2.837855,-0.991302,2.699515,-0.880127,2.857002,-0.610995,-1.252099,0.012522,0.608350,2.520201,-0.656985,-2.110239
17.600000,2.893334,-2.578069,9.269789,3.135620,-1.001924,-0.212236,2.717411,3.946817,1.224662,0.258447,-0.250511,1.324907,-2.156389,-2.517403,1.524220,12.082542,5.135039,1.715910,-0.696233,1.294829,0.298813,-2.744164,-0.769469,2.759393,-0.988630,2.861434,-0.518332,-1.366911,0.031105,0.509419,2.561575,-0.860115,-1.982979
17.700000,2.948779,-2.694960,9.321664,3.008266,-1.106258,-0.012387,2.624011,3.945457,1.377836,-0.080112,0.109388,1.352572,-1.847095,-2.259607,1.483507,12.035822,5.239851,1.714319,-0.743243,1.235317,0.017674,-2.525129,-0.470874,2.754854,-1.100854,2.837487,-0.419400,-1.412794,-0.011772,0.465543,2.601281,-1.132364,-1.712746
17.800000,3.022966,-2.806426,9.374317,2.900161,-1.183877,0.190277,2.391503,3.972159,1.530041,-0.444937,0.378371,1.186412,-1.391465,-2.006857,1.411562,12.078391,5.350353,1.693035,-0.625962,1.126052,-0.223756,-2.228577,-0.172417,2.646373,-1.195627,2.775399,-0.307158,-1.361790,-0.087849,0.478608,2.264999,-1.393471,-0.969727
17.900000,3.107426,-2.910000,9.428733,2.824600,-1.229895,0.391189,2.209459,4.001576,1.651990,-0.675746,0.499277,0.966802,-0.910138,-1.793200,1.293310,12.162722,5.448450,1.649535,-0.418846,1.027996,-0.359996,-1.901562,0.042200,2.471202,-1.255559,2.679525,-0.188614,-1.271745,-0.111947,0.505414,0.984973,-1.374380,0.768263
18.000000,3.193863,-3.004675,9.484724,2.790050,-1.247250,0.588827,2.149693,4.045569,1.736644,-0.707262,0.581450,0.802810,-0.496109,-1.651222,1.179152,12.239668,5.539876,1.564651,-0.172963,0.986788,-0.445635,-1.577367,0.157475,2.299340,-1.277706,2.552835,-0.077055,-1.239345,-0.077357,0.504244,0.901286,-1.237779,1.306215
18.100000,3.273311,-3.092517,9.544069,2.798889,-1.244863,0.783494,2.124056,4.102054,1.805925,-0.651173,0.725017,0.713723,-0.194566,-1.624668,1.100948,12.285231,5.627057,1.436508,0.096537,0.993480,-0.590644,-1.312553,0.175624,2.174700,-1.280731,2.413625,0.023494,-1.340398,-0.051367,0.493049,1.139760,-1.186446,1.425111
18.200000,3.340700,-3.179696,9.611529,2.846405,-1.234680,0.975489,2.079422,4.172748,1.876657,-0.605101,0.961971,0.720876,-0.063179,-1.724373,1.062168,12.285806,5.695904,1.308683,0.332672,1.048981,-0.823115,-1.181214,0.070570,2.116265,-1.304219,2.302608,0.128413,-1.547355,-0.050620,0.550599,1.511003,-1.188998,1.206467
18.300000,3.399903,-3.275390,9.692365,2.919326,-1.229130,1.166163,1.981326,4.210426,1.992184,-0.542185,1.181471,0.949017,-0.114314,-1.978666,1.049704,12.265538,5.778219,1.228332,0.470516,1.251684,-1.037152,-1.260306,-0.173330,2.137197,-1.391958,2.287755,0.253820,-1.755047,0.035661,0.744155,2.003110,-1.160239,0.599809
18.400000,3.462802,-3.386541,9.791015,2.997720,-1.239655,1.357078,1.724889,4.193557,2.194957,-0.482988,1.110859,1.441925,-0.279372,-2.390873,1.011692,12.424879,5.991747,1.203048,0.707336,1.562702,-0.959741,-1.605340,-0.463999,2.151900,-1.536367,2.416770,0.393586,-1.800759,0.300536,1.058492,2.364018,-0.992343,-0.163395
18.500000,3.545643,-3.511587,9.907688,3.059213,-1.279002,1.550709,1.290605,4.297058,2.377113,-0.466327,0.635183,1.713246,-0.474672,-2.812394,0.870702,12.923224,6.291718,1.135768,1.265299,1.559283,-0.672777,-1.897527,-0.672470,1.900380,-1.677463,2.681029,0.444940,-1.536743,0.630295,1.311476,2.365130,-0.749718,-0.828894
