t,truth_x,truth_y,truth_z,truth_roll,truth_pitch,truth_yaw,ekf_x,ekf_y,ekf_z,ekf_vx,ekf_vy,ekf_vz,ekf_roll,ekf_pitch,ekf_yaw,esekf_x,esekf_y,esekf_z,esekf_vx,esekf_vy,esekf_vz,esekf_roll,esekf_pitch,esekf_yaw
0.000000,0.000000,0.000000,0.000000,0.000000,0.000000,0.000000,0.031057,0.034174,0.016405,0.339071,0.389930,0.211606,0.131793,0.012277,-0.060194,0.033927,0.037162,0.017591,0.331897,0.382472,0.208641,0.131631,0.012297,-0.060244
0.100000,0.038772,0.052722,0.018182,0.020841,0.027397,0.080094,0.069464,0.076005,0.046800,0.368389,0.419750,0.330086,0.221650,-0.025813,-0.101975,0.073762,0.079565,0.049599,0.355976,0.412040,0.318958,0.221084,-0.025517,-0.101807
0.200000,0.071792,0.109065,0.042641,0.054904,0.055944,0.154447,0.105170,0.118157,0.088936,0.352778,0.423474,0.440211,0.263511,-0.125457,-0.118235,0.108973,0.121617,0.094516,0.347352,0.419305,0.412096,0.261867,-0.124059,-0.117438
0.300000,0.100082,0.168166,0.075425,0.094465,0.075476,0.226186,0.136158,0.160295,0.139505,0.309600,0.427037,0.511510,0.289137,-0.239356,-0.115735,0.137628,0.163299,0.147841,0.324833,0.428103,0.465049,0.286470,-0.235913,-0.114438
0.400000,0.124603,0.229224,0.113096,0.137387,0.083642,0.297352,0.161231,0.204330,0.194499,0.248365,0.446932,0.560463,0.285365,-0.368480,-0.108068,0.159696,0.207482,0.204017,0.291446,0.445090,0.507830,0.283186,-0.362560,-0.107440
0.500000,0.144916,0.291943,0.152545,0.182681,0.079644,0.369481,0.179746,0.251234,0.253027,0.174212,0.467999,0.607942,0.250100,-0.480251,-0.112676,0.176010,0.254977,0.262446,0.241612,0.454760,0.561395,0.250236,-0.471691,-0.114009
0.600000,0.160943,0.354891,0.198150,0.225495,0.061401,0.442015,0.192829,0.300086,0.315493,0.114330,0.483626,0.646012,0.210114,-0.516181,-0.130441,0.189347,0.304417,0.324266,0.187786,0.458704,0.609799,0.211873,-0.505337,-0.133860
0.700000,0.172921,0.416142,0.252002,0.263932,0.034369,0.513427,0.203719,0.349736,0.381117,0.093461,0.490159,0.668032,0.178685,-0.461034,-0.148082,0.203448,0.354605,0.389139,0.147556,0.457741,0.641580,0.180351,-0.448937,-0.153237
0.800000,0.180108,0.473650,0.313464,0.298609,0.008610,0.583315,0.216624,0.398553,0.448216,0.123281,0.482267,0.663632,0.175839,-0.327668,-0.155420,0.220911,0.402474,0.457019,0.140884,0.456607,0.634724,0.177942,-0.315269,-0.161208
0.900000,0.182595,0.526346,0.379918,0.330832,-0.007295,0.651727,0.236493,0.445991,0.511177,0.201967,0.465789,0.594232,0.220073,-0.142341,-0.165343,0.244928,0.446866,0.522410,0.171367,0.459096,0.558033,0.225632,-0.131120,-0.170862
1.000000,0.179737,0.576278,0.443186,0.365410,-0.006153,0.719452,0.265054,0.491218,0.563084,0.289866,0.440255,0.464026,0.298461,0.046225,-0.204599,0.275696,0.487037,0.577509,0.212804,0.462563,0.426691,0.310161,0.055039,-0.209036
1.100000,0.170649,0.625518,0.495772,0.407200,0.015512,0.784774,0.300497,0.533782,0.600851,0.357130,0.426361,0.305781,0.399950,0.179491,-0.259342,0.310332,0.524252,0.619324,0.250746,0.484381,0.263458,0.417356,0.184101,-0.262205
1.200000,0.156590,0.676134,0.534096,0.459128,0.055204,0.844357,0.340768,0.576188,0.624100,0.404103,0.458751,0.133958,0.491841,0.200790,-0.320286,0.347711,0.563547,0.647202,0.286239,0.547055,0.074516,0.512077,0.200698,-0.320278
1.300000,0.135637,0.731482,0.554589,0.522242,0.103788,0.898169,0.386120,0.622731,0.631453,0.472392,0.528677,-0.049078,0.519809,0.085165,-0.406108,0.390382,0.608382,0.659485,0.346776,0.638274,-0.124055,0.542398,0.084217,-0.400451
1.400000,0.103247,0.793804,0.554621,0.592637,0.147260,0.944481,0.441373,0.671859,0.622829,0.611020,0.564399,-0.224797,0.455451,-0.145799,-0.482307,0.442417,0.655959,0.654880,0.466413,0.701926,-0.292016,0.479950,-0.145880,-0.470734
1.500000,0.057608,0.864471,0.535494,0.662289,0.172805,0.980628,0.511137,0.712054,0.608288,0.796730,0.489245,-0.334858,0.267673,-0.456270,-0.503740,0.501886,0.698585,0.638511,0.620886,0.682410,-0.383386,0.287078,-0.467973,-0.489454
1.600000,-0.000348,0.943488,0.504685,0.718468,0.170795,1.011052,0.591518,0.731547,0.608848,0.949785,0.293686,-0.298601,-0.025751,-0.791382,-0.471021,0.557229,0.727196,0.625043,0.738740,0.582514,-0.358259,-0.035953,-0.834616,-0.443099
1.700000,-0.065356,1.028966,0.471967,0.744954,0.135049,1.041460,0.676027,0.733031,0.635030,0.983275,0.089525,-0.099751,-0.363360,-1.081114,-0.397736,0.608931,0.733715,0.636917,0.733424,0.493919,-0.209571,-0.444040,-1.143029,-0.316652
1.800000,-0.129405,1.117652,0.444716,0.731222,0.066413,1.074667,0.756072,0.727442,0.676646,0.880368,-0.007217,0.138502,-0.692912,-1.297952,-0.313954,0.664919,0.719746,0.674793,0.615369,0.495874,-0.026996,-0.854364,-1.339365,-0.161178
1.900000,-0.185492,1.204161,0.430827,0.675111,-0.029213,1.113931,0.830462,0.721538,0.723240,0.743991,0.035227,0.312895,-0.947121,-1.438061,-0.266463,0.727752,0.703838,0.714494,0.488615,0.592245,0.105567,-1.187779,-1.433566,-0.030258
2.000000,-0.230018,1.283106,0.437867,0.582366,-0.144271,1.159117,0.900486,0.723897,0.768889,0.652408,0.187518,0.390416,-1.076716,-1.482966,-0.284153,0.796344,0.706950,0.736661,0.415901,0.751759,0.150546,-1.450425,-1.435190,0.090753
2.100000,-0.265119,1.349447,0.471009,0.467309,-0.268441,1.205182,0.967996,0.745350,0.810092,0.621015,0.409587,0.390766,-1.066186,-1.434960,-0.364606,0.864994,0.744157,0.736835,0.407588,0.939062,0.111965,-1.617034,-1.371928,0.187264
2.200000,-0.296769,1.396924,0.532518,0.346178,-0.390923,1.245659,1.030200,0.796218,0.848332,0.592123,0.660408,0.370718,-0.913135,-1.316306,-0.457665,0.923895,0.815984,0.738263,0.415692,1.118176,0.045889,-1.577646,-1.268484,0.208741
2.300000,-0.331953,1.421504,0.617944,0.234167,-0.503642,1.276055,1.076643,0.878806,0.888787,0.470505,0.901501,0.393634,-0.652836,-1.174912,-0.513441,0.961345,0.913971,0.756296,0.351641,1.277133,0.015850,-1.320547,-1.133913,0.160098
2.400000,-0.376499,1.422114,0.718431,0.144639,-0.602834,1.298190,1.100268,0.980175,0.936348,0.234697,1.040645,0.508030,-0.357178,-1.041856,-0.526909,0.978349,1.023396,0.783954,0.212270,1.367574,0.066550,-0.966556,-0.950379,0.084888
2.500000,-0.432258,1.400262,0.826048,0.084608,-0.688960,1.316846,1.115227,1.070859,0.987828,0.018505,0.985325,0.646579,-0.093203,-0.902270,-0.509808,1.008729,1.117478,0.814426,0.130292,1.330857,0.149705,-0.650150,-0.716434,0.031354
2.600000,-0.496894,1.363250,0.930765,0.056663,-0.761623,1.336018,1.123137,1.146375,1.047452,-0.079882,0.833953,0.721988,0.085132,-0.773896,-0.477724,1.090201,1.182980,0.858417,0.179424,1.204996,0.184087,-0.444574,-0.510765,-0.021966
2.700000,-0.566097,1.321039,1.022872,0.057010,-0.820051,1.360055,1.115934,1.218940,1.120254,-0.037616,0.715557,0.684801,0.142610,-0.692662,-0.467925,1.192526,1.239767,0.920700,0.294862,1.049055,0.111787,-0.380766,-0.390211,-0.097236
2.800000,-0.634691,1.283361,1.097789,0.072461,-0.867656,1.388292,1.115045,1.288425,1.186444,0.141563,0.653048,0.497090,0.051432,-0.676611,-0.495311,1.278663,1.301829,0.962938,0.405371,0.876044,-0.091716,-0.476980,-0.357549,-0.176705
2.900000,-0.699583,1.262470,1.150542,0.087525,-0.909369,1.415253,1.150412,1.342702,1.217147,0.401473,0.529376,0.188184,-0.218320,-0.759368,-0.550458,1.353291,1.354805,0.917451,0.484310,0.638114,-0.369514,-0.770591,-0.421088,-0.235267
3.000000,-0.762300,1.266554,1.179408,0.084684,-0.953138,1.438076,1.209960,1.367967,1.219443,0.613437,0.203143,-0.069841,-0.606114,-0.926166,-0.614657,1.445187,1.362930,0.759745,0.506117,0.275057,-0.586846,-1.228047,-0.527645,-0.268353
3.100000,-0.824071,1.295916,1.190266,0.046012,-1.010527,1.454613,1.248068,1.364703,1.224806,0.629132,-0.220920,-0.132187,-0.981491,-1.107244,-0.638068,1.546294,1.307893,0.556303,0.415466,-0.114625,-0.636780,-1.692804,-0.589468,-0.292669
3.200000,-0.882960,1.349529,1.188978,-0.035357,-1.087096,1.464705,1.264754,1.336556,1.238608,0.524763,-0.508664,-0.053771,-1.256913,-1.239619,-0.613830,1.616555,1.217046,0.429118,0.302822,-0.339795,-0.558832,-2.005564,-0.614024,-0.329008
3.300000,-0.935182,1.421298,1.184170,-0.154417,-1.180614,1.473569,1.290714,1.283737,1.251328,0.450215,-0.604841,0.043273,-1.400199,-1.292021,-0.591697,1.650714,1.125604,0.376696,0.269715,-0.397660,-0.479914,-2.148247,-0.600455,-0.362596
3.400000,-0.978573,1.497803,1.187002,-0.297961,-1.284331,1.483637,1.333739,1.221177,1.261396,0.474672,-0.540533,0.101104,-1.391582,-1.288842,-0.575432,1.676850,1.043872,0.348116,0.328543,-0.359683,-0.470917,-2.128974,-0.559968,-0.376933
3.500000,-1.015999,1.566287,1.201451,-0.448328,-1.389563,1.493889,1.390305,1.173834,1.271240,0.583436,-0.315136,0.120777,-1.242697,-1.244720,-0.545077,1.713268,0.982579,0.326739,0.459952,-0.237253,-0.526093,-1.970074,-0.506294,-0.359211
3.600000,-1.056290,1.616419,1.226591,-0.590933,-1.492265,1.506598,1.448986,1.166528,1.286178,0.647041,0.040514,0.125322,-0.981304,-1.117807,-0.511724,1.749918,0.967392,0.303524,0.576763,-0.016612,-0.584860,-1.700275,-0.384756,-0.323626
3.700000,-1.109296,1.644388,1.257657,-0.712763,-1.587652,1.523367,1.502551,1.198095,1.310270,0.569795,0.399400,0.181257,-0.635205,-0.886112,-0.490185,1.780324,1.002010,0.257878,0.594348,0.260577,-0.595717,-1.353996,-0.129003,-0.302487
3.800000,-1.177906,1.655456,1.287521,-0.802650,-1.664484,1.542874,1.550549,1.244028,1.340333,0.405466,0.600200,0.365646,-0.275632,-0.588909,-0.475550,1.820000,1.055503,0.207904,0.559263,0.490172,-0.516007,-1.017725,0.231079,-0.330447
3.900000,-1.261641,1.654680,1.313060,-0.856155,-1.714271,1.564906,1.596633,1.278990,1.372292,0.300685,0.559928,0.581527,0.045177,-0.265694,-0.478549,1.903322,1.084594,0.175491,0.561755,0.571027,-0.400646,-0.761581,0.621130,-0.468174
4.000000,-1.356439,1.646889,1.332870,-0.871478,-1.731837,1.588421,1.639163,1.296516,1.416611,0.284906,0.369479,0.685333,0.328266,0.036437,-0.521992,2.014126,1.074140,0.076727,0.544483,0.516752,-0.367455,-0.712822,0.973744,-0.792581
4.100000,-1.452590,1.638202,1.346257,-0.849298,-1.713690,1.609339,1.669329,1.305273,1.473706,0.283945,0.172440,0.651387,0.588849,0.272127,-0.592550,2.095396,1.049856,-0.113507,0.414956,0.435201,-0.399586,-0.982197,1.190271,-1.373192
4.200000,-1.541611,1.632590,1.354738,-0.793803,-1.664098,1.623260,1.689394,1.312447,1.531885,0.280383,0.099641,0.537845,0.812651,0.423760,-0.659821,2.141033,1.040083,-0.284752,0.199032,0.434694,-0.393943,-1.217688,1.257879,-1.866113
4.300000,-1.616162,1.636948,1.358869,-0.709201,-1.591642,1.628326,1.713557,1.323993,1.581482,0.331956,0.198444,0.404640,0.958549,0.462955,-0.702784,2.194259,1.037005,-0.370231,-0.003156,0.558388,-0.382694,-1.183758,1.227287,-2.020361
4.400000,-1.670813,1.661411,1.358837,-0.603467,-1.507642,1.626340,1.750575,1.351698,1.617898,0.457922,0.407386,0.265582,0.995465,0.400226,-0.713920,2.258911,1.030095,-0.441255,-0.161946,0.755654,-0.460484,-1.134329,1.090284,-2.034217
4.500000,-1.707576,1.712964,1.354943,-0.488217,-1.426183,1.621092,1.801309,1.406844,1.631635,0.606418,0.663237,0.068622,0.929736,0.294642,-0.696962,2.265417,1.058013,-0.554575,-0.382836,0.934983,-0.584436,-1.224979,0.917314,-2.026805
4.600000,-1.733373,1.795317,1.344538,-0.374106,-1.354540,1.616102,1.862251,1.489213,1.615216,0.728700,0.876696,-0.223845,0.784705,0.168165,-0.670540,2.152958,1.165643,-0.658984,-0.712549,1.044671,-0.598809,-1.458884,0.798981,-2.042327
4.700000,-1.755959,1.908230,1.325334,-0.271291,-1.294227,1.613561,1.933483,1.580874,1.569880,0.807054,0.930917,-0.551072,0.593753,0.039578,-0.658619,1.937789,1.369988,-0.646834,-0.990889,1.108671,-0.415864,-1.766723,0.785854,-2.121296
4.800000,-1.783275,2.043795,1.297600,-0.186567,-1.246546,1.613189,2.019265,1.657890,1.505064,0.834742,0.802539,-0.767589,0.405422,-0.068986,-0.669811,1.727813,1.612616,-0.516738,-1.040559,1.128364,-0.208990,-2.032307,0.828723,-2.236191
4.900000,-1.820649,2.185702,1.264498,-0.123267,-1.210474,1.612794,2.115144,1.710425,1.431368,0.819009,0.579132,-0.792265,0.251577,-0.174564,-0.694696,1.546612,1.832624,-0.380109,-0.913030,1.070408,-0.096651,-2.237033,0.837770,-2.348858
5.000000,-1.867678,2.314915,1.234037,-0.081756,-1.186111,1.610344,2.210727,1.741696,1.361071,0.767027,0.387056,-0.616959,0.147760,-0.287991,-0.713376,1.385528,2.007623,-0.286518,-0.671811,0.963646,-0.095356,-2.389579,0.792449,-2.441785
5.100000,-1.920741,2.416437,1.213806,-0.056094,-1.175218,1.605149,2.292374,1.765373,1.312943,0.661183,0.315711,-0.276511,0.084340,-0.404682,-0.698939,1.254695,2.139474,-0.234110,-0.346337,0.836473,-0.226413,-2.498414,0.719525,-2.492987
5.200000,-1.976785,2.478064,1.209652,-0.040088,-1.177441,1.599333,2.349788,1.798109,1.306339,0.468837,0.388530,0.171109,0.083714,-0.483977,-0.642149,1.175581,2.224684,-0.234171,0.014652,0.704793,-0.493345,-2.534764,0.659901,-2.484112
5.300000,-2.033829,2.489342,1.226848,-0.029047,-1.191014,1.597360,2.373952,1.847228,1.354870,0.183231,0.481476,0.637611,0.182498,-0.451468,-0.559049,1.176612,2.281481,-0.276886,0.399482,0.581150,-0.785236,-2.442891,0.699546,-2.420102
5.400000,-2.091060,2.446732,1.263374,-0.013495,-1.208470,1.602759,2.391520,1.877198,1.427408,-0.054381,0.383302,1.084946,0.352315,-0.265500,-0.485588,1.254457,2.353587,-0.312175,0.845972,0.473225,-0.916747,-2.253019,0.905996,-2.358422
5.500000,-2.146282,2.354268,1.312612,0.016347,-1.215945,1.616533,2.428901,1.856274,1.503519,-0.096034,0.038362,1.421088,0.554201,0.027607,-0.459740,1.363737,2.503291,-0.246922,1.291978,0.390949,-0.763883,-2.249793,1.279874,-2.555795
5.600000,-2.194029,2.219933,1.369759,0.067702,-1.200390,1.636630,2.378328,1.840538,1.671518,-0.130074,-0.454554,1.473985,0.822901,0.290842,-0.459734,1.473528,2.714968,-0.056713,1.521817,0.270183,-0.461215,2.120820,1.368399,1.608090
5.700000,-2.227892,2.058503,1.430811,0.146288,-1.152924,1.657926,2.241468,1.814120,1.885685,-0.270383,-0.820731,1.266867,1.112772,0.444538,-0.487600,1.609824,2.882470,0.131688,1.504230,0.163961,-0.151575,2.333820,1.444658,1.610050
5.800000,-2.244486,1.893179,1.493554,0.252981,-1.074089,1.674959,2.117247,1.767095,2.028183,-0.360273,-0.850872,1.017158,1.307678,0.483013,-0.538777,1.725139,2.972087,0.259487,1.266395,0.175190,0.040773,2.681430,1.436189,1.771053
5.900000,-2.248094,1.748054,1.554190,0.384939,-0.976955,1.684580,2.026201,1.723995,2.125903,-0.309840,-0.598118,0.853495,1.371991,0.385933,-0.590860,1.781367,3.004666,0.286874,0.934748,0.350890,0.089173,2.967526,1.318310,1.972056
6.000000,-2.250919,1.638923,1.604406,0.533171,-0.879243,1.685672,1.965545,1.712630,2.205539,-0.141925,-0.163695,0.747473,1.255517,0.144840,-0.615590,1.810582,3.004513,0.238483,0.633285,0.632430,0.100394,3.000047,1.063645,2.127610
6.100000,-2.268535,1.568470,1.636702,0.679699,-0.797511,1.679533,1.962433,1.751751,2.232274,0.084536,0.352130,0.498008,0.935890,-0.197244,-0.595800,1.868016,3.006200,0.235310,0.365639,0.854195,0.293021,2.756160,0.692835,2.207329
6.200000,-2.313571,1.527509,1.649477,0.805225,-0.746110,1.670946,2.043951,1.799303,2.195360,0.403838,0.612999,0.006260,0.455959,-0.573334,-0.555347,1.960765,3.024857,0.362498,0.129913,0.819189,0.667221,2.368867,0.267554,2.215520
6.300000,-2.390866,1.505664,1.647581,0.892577,-0.734050,1.665075,2.132141,1.798901,2.180935,0.748769,0.359704,-0.345625,-0.077018,-0.954275,-0.486816,1.993724,3.045625,0.520532,-0.095885,0.551393,0.895673,1.893047,-0.173290,2.175547
6.400000,-2.496855,1.497526,1.638135,0.927076,-0.764415,1.664313,2.157085,1.766458,2.229943,0.849789,-0.086971,-0.259836,-0.596348,-1.326532,-0.382786,1.919897,3.067629,0.612064,-0.294124,0.326701,0.834708,1.397679,-0.618622,2.076207
6.500000,-2.617870,1.498358,1.628277,0.899878,-0.837813,1.669952,2.137723,1.738676,2.296076,0.672343,-0.383962,0.000176,-1.094931,-1.640475,-0.290058,1.778511,3.111804,0.645925,-0.357374,0.273451,0.719489,0.982889,-1.006023,1.899671
6.600000,-2.734939,1.504257,1.624273,0.809571,-0.950409,1.681384,2.116329,1.707952,2.352931,0.426413,-0.433824,0.167030,-1.514372,-1.862533,-0.250781,1.644709,3.171072,0.673145,-0.225935,0.177886,0.685066,0.785701,-1.291193,1.607024
6.700000,-2.834023,1.510644,1.629156,0.664588,-1.090661,1.693865,2.119052,1.669860,2.397046,0.343033,-0.271136,0.258492,-1.812152,-2.020297,-0.251841,1.546173,3.214336,0.709263,-0.015132,-0.125977,0.644184,1.221645,-1.475743,0.835541
6.800000,-2.905222,1.504886,1.645744,0.479705,-1.248562,1.703956,2.151853,1.647004,2.438296,0.500983,0.026952,0.377873,-1.942107,-2.096837,-0.263841,1.473197,3.204599,0.739496,0.130467,-0.608617,0.518962,2.554196,-1.514227,-0.636822
6.900000,-2.946483,1.465812,1.674296,0.270935,-1.418955,1.712098,2.215296,1.663722,2.481894,0.789986,0.413225,0.471784,-1.910701,-2.050750,-0.254432,1.447230,3.152377,0.761291,0.215127,-1.108142,0.396569,2.331178,-1.458262,-0.390749
7.000000,-2.971431,1.377830,1.701482,0.056920,-1.591102,1.719020,2.275634,1.752728,2.537737,0.995913,0.974627,0.426130,-1.740801,-1.912800,-0.188061,1.488808,3.067118,0.782946,0.372592,-1.569230,0.296590,2.226300,-1.293135,-0.074580
7.100000,-3.001057,1.237852,1.708006,-0.146048,-1.753401,1.728733,2.255165,1.943701,2.636025,0.775659,1.662491,0.254540,-1.434106,-1.693075,-0.097487,1.457029,2.836403,0.663463,0.624943,-1.906722,-0.335587,2.838449,-1.009546,-0.397976
7.200000,-3.055555,1.055513,1.679931,-0.326519,-1.896977,1.747617,2.253865,2.103954,2.732093,0.264297,1.932539,0.189792,-1.097154,-1.357168,-0.094124,1.128877,2.489681,0.360047,0.291460,-2.023736,-0.690620,3.050577,-0.902646,-0.641436
7.300000,-3.144838,0.859133,1.615582,-0.473402,-2.006548,1.777111,2.153155,2.290887,2.915684,-0.238267,1.841759,0.452742,-0.750728,-1.066922,-0.126123,0.878098,2.189869,0.105975,0.046928,-1.826844,-0.920904,-3.069298,-0.765333,-0.764277
7.400000,-3.262359,0.676661,1.530097,-0.579630,-2.071731,1.815076,1.975813,2.486090,3.163132,-0.483970,1.510205,0.742385,-0.399297,-0.851075,-0.208381,0.738336,1.988515,-0.113855,-0.169052,-1.381751,-1.006286,-2.880457,-0.578807,-0.898524
7.500000,-3.390873,0.524851,1.444205,-0.644082,-2.095668,1.855663,1.832911,2.635205,3.363886,-0.441306,1.123020,0.728292,-0.113863,-0.684035,-0.347604,0.660592,1.873479,-0.297653,-0.418871,-0.888562,-0.814050,-2.731916,-0.420907,-1.067256
7.600000,-3.508412,0.419886,1.374252,-0.671807,-2.085300,1.888577,1.753585,2.747794,3.461000,-0.255482,0.871105,0.372892,0.035708,-0.627576,-0.470154,0.597452,1.810390,-0.430741,-0.688899,-0.519167,-0.400672,-2.670209,-0.386722,-1.216840
7.700000,-3.600704,0.373195,1.329427,-0.676609,-2.055967,1.908814,1.733195,2.829331,3.479882,0.070021,0.691710,-0.158193,0.051639,-0.720377,-0.550884,0.524871,1.775743,-0.497784,-0.977495,-0.245588,0.099439,-2.700538,-0.497733,-1.307790
7.800000,-3.665597,0.389837,1.311674,-0.673267,-2.028992,1.918793,1.775995,2.870430,3.443075,0.527036,0.384403,-0.641692,-0.058389,-0.916711,-0.581540,0.440824,1.779181,-0.500136,-1.232088,0.050182,0.552058,-2.830520,-0.706155,-1.332670
7.900000,-3.705035,0.470028,1.319538,-0.674300,-2.017152,1.923123,1.866154,2.860404,3.388155,0.975455,-0.115200,-0.827956,-0.253669,-1.167894,-0.556303,0.357655,1.865821,-0.493450,-1.390164,0.409436,0.795199,-2.953231,-0.949801,-1.367980
8.000000,-3.723118,0.601065,1.350722,-0.692540,-2.028394,1.928467,1.976953,2.808136,3.329244,1.233387,-0.626506,-0.695586,-0.486852,-1.385297,-0.481479,0.267181,2.034502,-0.534550,-1.471280,0.720198,0.787208,-2.928825,-1.120513,-1.501429
8.100000,-3.724101,0.762774,1.401625,-0.734864,-2.065561,1.939599,2.085056,2.730312,3.276440,1.280462,-0.997296,-0.437634,-0.728773,-1.533973,-0.374520,0.155828,2.224055,-0.589447,-1.467276,0.909635,0.693559,-2.893215,-1.190424,-1.628101
8.200000,-3.709405,0.936585,1.468903,-0.803037,-2.122588,1.957860,2.188975,2.628956,3.249360,1.204067,-1.190820,-0.207052,-0.923858,-1.617315,-0.280524,0.041925,2.405605,-0.611545,-1.376438,0.987983,0.593529,-2.908643,-1.206218,-1.701427
8.300000,-3.681538,1.104556,1.547252,-0.896546,-2.193185,1.983655,2.291653,2.512800,3.243517,1.079881,-1.188783,-0.096067,-1.028488,-1.605753,-0.235318,-0.054614,2.564564,-0.590187,-1.239579,0.928583,0.506182,-2.940679,-1.157285,-1.734668
8.400000,-3.645270,1.253820,1.627988,-1.007510,-2.268938,2.014087,2.392384,2.396948,3.237291,0.963181,-1.021597,-0.100425,-1.020843,-1.503704,-0.238984,-0.136669,2.688281,-0.537982,-1.114222,0.739411,0.423204,-2.920045,-1.039073,-1.747612
8.500000,-3.606863,1.377493,1.703007,-1.124192,-2.337454,2.045049,2.485013,2.304264,3.218141,0.850380,-0.699881,-0.172579,-0.898659,-1.347212,-0.284090,-0.217823,2.769615,-0.480192,-1.008147,0.461693,0.285450,-2.794970,-0.874097,-1.777050
8.600000,-3.576598,1.471366,1.766274,-1.234893,-2.391208,2.073212,2.562282,2.257053,3.193316,0.693105,-0.260381,-0.225515,-0.661764,-1.182256,-0.337896,-0.299074,2.812276,-0.448154,-0.872315,0.169223,0.052525,-2.555976,-0.700255,-1.816648
8.700000,-3.565284,1.535201,1.815640,-1.326597,-2.427512,2.095284,2.614833,2.261037,3.179150,0.433978,0.199635,-0.151302,-0.323707,-1.041486,-0.363165,-0.362879,2.821541,-0.459239,-0.641777,-0.085599,-0.239468,-2.217649,-0.545692,-1.834097
8.800000,-3.580648,1.571020,1.854063,-1.388316,-2.447346,2.113191,2.632138,2.295390,3.188684,0.046062,0.492929,0.075633,0.060215,-0.920847,-0.366306,-0.384195,2.805843,-0.503155,-0.272519,-0.254048,-0.474996,-1.828565,-0.403906,-1.830129
8.900000,-3.627170,1.582051,1.885287,-1.412215,-2.453846,2.130706,2.613034,2.323090,3.220059,-0.364077,0.486393,0.362755,0.408699,-0.807802,-0.342722,-0.351187,2.782363,-0.548470,0.160517,-0.310124,-0.542577,-1.465611,-0.269182,-1.791150
9.000000,-3.703196,1.571732,1.910266,-1.396379,-2.447963,2.149105,2.567881,2.321393,3.266003,-0.657285,0.259111,0.609575,0.652818,-0.693797,-0.285646,-0.276860,2.767478,-0.572996,0.540312,-0.274177,-0.463205,-1.200155,-0.135296,-1.709754
9.100000,-3.803037,1.541988,1.928344,-1.348307,-2.430882,2.173540,2.506298,2.295545,3.335524,-0.794549,-0.023500,0.792748,0.790400,-0.566611,-0.234783,-0.178604,2.764709,-0.578411,0.802052,-0.188596,-0.324661,-1.048090,0.022856,-1.633511
9.200000,-3.919052,1.494550,1.937365,-1.279268,-2.402093,2.207337,2.437839,2.254841,3.432745,-0.790769,-0.229131,0.897233,0.862165,-0.432457,-0.214405,-0.068338,2.767563,-0.573241,0.915580,-0.102073,-0.218363,-0.980100,0.202514,-1.589867
9.300000,-4.038731,1.433190,1.935737,-1.199168,-2.358788,2.246917,2.370814,2.209101,3.545107,-0.708713,-0.298775,0.914546,0.912820,-0.306572,-0.229508,0.043674,2.770383,-0.565385,0.904991,-0.019057,-0.180345,-0.949958,0.376589,-1.586292
9.400000,-4.150036,1.367029,1.925733,-1.114165,-2.301616,2.289709,2.309177,2.168743,3.657931,-0.607828,-0.257478,0.868345,0.958893,-0.182352,-0.305309,0.149476,2.769880,-0.558339,0.819422,0.059711,-0.177561,-0.935784,0.538709,-1.649975
9.500000,-4.247191,1.306102,1.910683,-1.026114,-2.230661,2.330685,2.254307,2.141411,3.755520,-0.511854,-0.155470,0.786662,1.010611,-0.090636,-0.414422,0.242543,2.767870,-0.552003,0.706813,0.133386,-0.183496,-0.913170,0.652253,-1.756941
9.600000,-4.329020,1.255044,1.892823,-0.935544,-2.146225,2.362190,2.205384,2.129637,3.834685,-0.427332,-0.042343,0.688049,1.100733,-0.055466,-0.499363,0.321670,2.767701,-0.545651,0.597210,0.206350,-0.192164,-0.841202,0.697923,-1.847432
9.700000,-4.398446,1.215714,1.873856,-0.839214,-2.054961,2.383785,2.163645,2.130329,3.899527,-0.348938,0.060207,0.588499,1.222811,-0.047208,-0.549302,0.388503,2.772701,-0.540452,0.501298,0.272154,-0.206705,-0.729873,0.710172,-1.904349
9.800000,-4.459038,1.188569,1.854848,-0.731032,-1.962090,2.398559,2.129617,2.140310,3.953354,-0.273351,0.141096,0.507617,1.343998,-0.060048,-0.552672,0.445084,2.784568,-0.538284,0.430391,0.323986,-0.236120,-0.614621,0.697658,-1.913555
9.900000,-4.512838,1.171582,1.836903,-0.609456,-1.868863,2.409777,2.103731,2.156730,4.000752,-0.201970,0.206314,0.462347,1.443476,-0.079583,-0.504201,0.494881,2.803926,-0.542342,0.384187,0.363419,-0.283953,-0.518958,0.676453,-1.869086
10.000000,-4.563357,1.162208,1.820546,-0.476164,-1.777761,2.423588,2.085696,2.179328,4.045310,-0.134302,0.270622,0.441341,1.484974,-0.084771,-0.435390,0.538027,2.831232,-0.555844,0.347322,0.393547,-0.342012,-0.481451,0.669814,-1.803392
10.100000,-4.613974,1.157669,1.806106,-0.334979,-1.688990,2.444207,2.075198,2.209977,4.088275,-0.068276,0.351345,0.425405,1.441217,-0.064149,-0.381516,0.572853,2.866625,-0.580150,0.308488,0.428134,-0.398729,-0.530294,0.690898,-1.752756
10.200000,-4.666969,1.154798,1.793190,-0.193978,-1.599392,2.471703,2.072231,2.251994,4.126565,-0.000390,0.454203,0.379856,1.303291,-0.031984,-0.374917,0.595132,2.911902,-0.614797,0.254075,0.469895,-0.442909,-0.675770,0.725571,-1.751731
10.300000,-4.724358,1.150657,1.779304,-0.062112,-1.506251,2.502933,2.079560,2.304342,4.154103,0.076191,0.546286,0.277083,1.079573,-0.028396,-0.419023,0.601381,2.965001,-0.656692,0.179061,0.498447,-0.464961,-0.909026,0.729271,-1.801935
10.400000,-4.785112,1.142434,1.763221,0.051517,-1.410189,2.531744,2.097031,2.360433,4.167091,0.143636,0.586751,0.132099,0.829440,-0.057039,-0.481703,0.589310,3.021870,-0.700134,0.101604,0.507583,-0.456174,-1.172873,0.697597,-1.869497
10.500000,-4.845820,1.128043,1.744804,0.139854,-1.316129,2.553981,2.119108,2.416093,4.167447,0.183909,0.578118,0.004464,0.620518,-0.096034,-0.528569,0.564680,3.079897,-0.740393,0.046205,0.500208,-0.424708,-1.397333,0.658135,-1.919861
10.600000,-4.903255,1.106816,1.723909,0.203403,-1.227214,2.569828,2.139065,2.469530,4.160116,0.187803,0.538150,-0.073252,0.475843,-0.139776,-0.533476,0.533088,3.135236,-0.776312,0.025979,0.473573,-0.383440,-1.558301,0.619698,-1.929315
10.700000,-4.953876,1.079479,1.702238,0.247756,-1.142705,2.582550,2.154293,2.520963,4.150558,0.156980,0.499700,-0.070054,0.406352,-0.183305,-0.499421,0.502139,3.185144,-0.810135,0.061120,0.437580,-0.355190,-1.642128,0.584811,-1.902655
10.800000,-4.993328,1.046285,1.682324,0.280510,-1.062851,2.597158,2.164139,2.570250,4.146505,0.095810,0.470295,0.009444,0.412571,-0.185893,-0.449615,0.482899,3.228854,-0.842963,0.139573,0.402928,-0.340634,-1.645000,0.588160,-1.860144
10.900000,-5.017718,1.007344,1.667576,0.310166,-0.986273,2.616477,2.168662,2.614538,4.154737,0.022331,0.433418,0.121478,0.484007,-0.102631,-0.398435,0.482440,3.267358,-0.871113,0.220278,0.386010,-0.316100,-1.576908,0.670813,-1.811981
11.000000,-5.026511,0.964434,1.659950,0.343471,-0.905971,2.641088,2.169362,2.652372,4.175647,-0.033501,0.383809,0.231608,0.616075,0.046191,-0.358911,0.498400,3.305742,-0.889660,0.275221,0.392852,-0.268581,-1.443543,0.817261,-1.770812
11.100000,-5.022942,0.919521,1.657492,0.387290,-0.813624,2.670841,2.167387,2.683579,4.207201,-0.056206,0.321623,0.321437,0.781389,0.208562,-0.350815,0.525614,3.345792,-0.896263,0.298880,0.403423,-0.200740,-1.277843,0.982458,-1.760252
11.200000,-5.010566,0.874088,1.658878,0.447496,-0.704597,2.703312,2.162714,2.709400,4.245827,-0.058642,0.278061,0.370975,0.929123,0.327498,-0.370531,0.559286,3.384203,-0.892974,0.282793,0.420638,-0.131066,-1.136250,1.110459,-1.782461
11.300000,-4.992858,0.829057,1.663181,0.524233,-0.579597,2.735041,2.156348,2.735250,4.286773,-0.055058,0.299544,0.384466,1.015814,0.356845,-0.404112,0.593386,3.422948,-0.884746,0.235763,0.466227,-0.081249,-1.057413,1.148412,-1.821031
11.400000,-4.974249,0.783119,1.667149,0.613452,-0.445292,2.763802,2.150629,2.768424,4.324549,-0.044673,0.378199,0.360151,0.999637,0.288159,-0.438198,0.623304,3.465639,-0.879333,0.181418,0.529420,-0.065193,-1.074222,1.082555,-1.857056
11.500000,-4.957390,0.733902,1.669973,0.707589,-0.312866,2.788631,2.145768,2.814606,4.350368,-0.035479,0.488375,0.268443,0.859683,0.106568,-0.454811,0.642226,3.514781,-0.885081,0.113269,0.590527,-0.091952,-1.209166,0.897329,-1.875582
11.600000,-4.942794,0.679929,1.673367,0.794675,-0.193980,2.810447,2.144860,2.871670,4.356002,-0.000732,0.579487,0.077983,0.608909,-0.161496,-0.447820,0.628647,3.578390,-0.904432,0.000184,0.624035,-0.147070,-1.468926,0.634382,-1.874947
11.700000,-4.931800,0.620474,1.677693,0.862158,-0.098674,2.831594,2.158438,2.923144,4.344561,0.094191,0.568369,-0.161417,0.278768,-0.451680,-0.422047,0.566003,3.659492,-0.927350,-0.151357,0.606853,-0.165131,-1.837252,0.376587,-1.873730
11.800000,-4.925689,0.555938,1.682546,0.899522,-0.033517,2.854558,2.194033,2.950042,4.329431,0.232328,0.427029,-0.334454,-0.080848,-0.730455,-0.387812,0.481969,3.738816,-0.940892,-0.269459,0.556214,-0.118105,-2.238414,0.132919,-1.892865
11.900000,-4.923471,0.487946,1.687409,0.899291,0.001081,2.881009,2.243557,2.952361,4.316615,0.349905,0.235054,-0.370858,-0.415813,-0.987902,-0.353262,0.415807,3.803193,-0.941405,-0.306872,0.501995,-0.065095,-2.585019,-0.113354,-1.924231
12.000000,-4.923749,0.420431,1.692404,0.859669,0.006374,2.911279,2.296440,2.943529,4.303148,0.408201,0.094745,-0.314646,-0.680677,-1.197586,-0.327625,0.372199,3.857109,-0.935754,-0.298299,0.449402,-0.054318,-2.831791,-0.324945,-1.956866
12.100000,-4.924912,0.358054,1.698707,0.785634,-0.016011,2.944579,2.346321,2.935140,4.286363,0.418453,0.037926,-0.245803,-0.849311,-1.326693,-0.313910,0.339158,3.905456,-0.930435,-0.284572,0.389699,-0.084348,-2.969679,-0.452217,-1.986920
12.200000,-4.924840,0.302776,1.706569,0.687590,-0.057558,2.979242,2.393238,2.932745,4.269495,0.400851,0.078263,-0.188822,-0.904430,-1.394197,-0.300643,0.308531,3.944757,-0.932967,-0.287062,0.312406,-0.162439,-2.996435,-0.517854,-2.005742
12.300000,-4.922561,0.256167,1.718145,0.577742,-0.108539,3.014881,2.435497,2.943487,4.254277,0.359564,0.204370,-0.152248,-0.860267,-1.429926,-0.280867,0.277224,3.968747,-0.951584,-0.305780,0.221746,-0.276598,-2.934090,-0.559163,-2.009589
12.400000,-4.916313,0.218440,1.738984,0.466937,-0.165131,3.052470,2.466506,2.971577,4.241325,0.279398,0.350485,-0.132612,-0.741715,-1.433440,-0.264361,0.247012,3.977245,-0.986261,-0.312324,0.130540,-0.383792,-2.807541,-0.572521,-2.009509
12.500000,-4.904350,0.186187,1.770016,0.364520,-0.223910,3.091783,2.483474,3.014191,4.230189,0.161032,0.468767,-0.119304,-0.580384,-1.417996,-0.248256,0.223287,3.972906,-1.032958,-0.292613,0.049617,-0.470482,-2.641530,-0.566723,-2.004168
12.600000,-4.886564,0.155686,1.807779,0.277519,-0.281871,3.132542,2.488146,3.066036,4.219511,0.021137,0.552728,-0.107624,-0.428139,-1.397977,-0.227515,0.208213,3.960830,-1.087881,-0.248892,-0.022199,-0.545575,-2.482441,-0.551840,-1.988496
12.700000,-4.861896,0.124885,1.850340,0.207696,-0.338236,-3.108106,2.480683,3.123135,4.209397,-0.117170,0.598079,-0.092653,-0.312639,-1.384226,-0.199029,0.202081,3.944758,-1.148252,-0.192130,-0.079405,-0.599090,-2.357664,-0.536453,-1.959895
12.800000,-4.830165,0.093424,1.896621,0.151780,-0.392290,-3.063272,2.462506,3.182208,4.199959,-0.212876,0.603654,-0.086805,-0.234607,-1.393834,-0.165323,0.202278,3.927571,-1.209410,-0.149133,-0.102965,-0.618595,-2.271139,-0.537567,-1.920387
12.900000,-4.792933,0.060717,1.943053,0.105813,-0.446033,-3.014574,2.438382,3.240646,4.189596,-0.241639,0.582857,-0.101309,-0.188768,-1.425179,-0.137768,0.204302,3.911594,-1.267850,-0.140511,-0.092390,-0.604259,-2.221019,-0.558052,-1.882106
13.000000,-4.752135,0.026187,1.982935,0.066763,-0.502171,-2.961908,2.415186,3.296974,4.176980,-0.197351,0.552518,-0.125318,-0.175390,-1.475273,-0.123250,0.202858,3.896814,-1.321505,-0.176222,-0.063400,-0.562081,-2.208693,-0.598988,-1.853935
13.100000,-4.710883,-0.009529,2.011832,0.030761,-0.562088,-2.907344,2.398620,3.350819,4.162687,-0.078256,0.515827,-0.147928,-0.183159,-1.539559,-0.120549,0.193051,3.882742,-1.368856,-0.263116,-0.011197,-0.489492,-2.223760,-0.656593,-1.835751
13.200000,-4.672793,-0.046827,2.026692,-0.005444,-0.628628,-2.851986,2.399283,3.399800,4.147104,0.117159,0.458679,-0.153158,-0.198661,-1.598295,-0.125043,0.169782,3.874066,-1.407646,-0.396280,0.072036,-0.382725,-2.249482,-0.711561,-1.824745
13.300000,-4.643668,-0.087265,2.022011,-0.042798,-0.701858,-2.796676,2.422882,3.441856,4.133552,0.346105,0.387637,-0.121584,-0.212764,-1.664435,-0.132216,0.128971,3.874896,-1.434872,-0.543778,0.163574,-0.258875,-2.275621,-0.775967,-1.818191
13.400000,-4.629938,-0.132237,1.996870,-0.081540,-0.780383,-2.742154,2.468236,3.476264,4.127963,0.557964,0.313169,-0.041043,-0.220389,-1.766018,-0.142878,0.071421,3.885418,-1.449706,-0.675858,0.247970,-0.134479,-2.298934,-0.877223,-1.816013
13.500000,-4.634219,-0.183003,1.956327,-0.121520,-0.867475,-2.688440,2.531040,3.503100,4.136940,0.716542,0.247420,0.095310,-0.228524,-1.894548,-0.145691,0.000817,3.908232,-1.454698,-0.775373,0.315830,-0.027150,-2.321421,-1.006118,-1.810736
13.600000,-4.657566,-0.240322,1.907487,-0.162444,-0.966287,-2.635598,2.602924,3.524955,4.165109,0.770897,0.218770,0.260492,-0.241419,-2.043122,-0.128955,-0.078483,3.942475,-1.454754,-0.821391,0.337846,0.036893,-2.338188,-1.157624,-1.797187
13.700000,-4.696627,-0.303896,1.860088,-0.205115,-1.078672,-2.581957,2.674796,3.546356,4.206798,0.713403,0.229898,0.385821,-0.259051,-2.171670,-0.099130,-0.160644,3.978820,-1.453564,-0.807474,0.300559,0.060919,-2.345474,-1.293949,-1.781816
13.800000,-4.741998,-0.371740,1.822975,-0.250237,-1.206853,-2.525497,2.739168,3.570290,4.253422,0.593305,0.263666,0.433359,-0.275998,-2.246133,-0.062791,-0.240667,4.008932,-1.451361,-0.748673,0.211895,0.064459,-2.335869,-1.377127,-1.774261
13.900000,-4.784020,-0.440120,1.801295,-0.297778,-1.347243,-2.466033,2.792427,3.599219,4.295937,0.456488,0.322220,0.394089,-0.285209,-2.248419,-0.012637,-0.315014,4.024249,-1.444925,-0.664704,0.080666,0.051214,-2.327751,-1.386967,-1.744172
14.000000,-4.813517,-0.504805,1.794939,-0.347558,-1.491443,-2.402349,2.832388,3.635911,4.327352,0.324050,0.397451,0.288575,-0.249110,-2.152162,0.057185,-0.380570,4.020855,-1.434250,-0.570030,-0.064062,0.017277,-2.305040,-1.294213,-1.662817
14.100000,-4.825125,-0.563443,1.798017,-0.396816,-1.631356,-2.332281,2.857603,3.679649,4.346196,0.182150,0.462884,0.158652,-0.133578,-1.966520,0.119155,-0.433929,4.004404,-1.429843,-0.469466,-0.184981,-0.049445,-2.204069,-1.105316,-1.584983
14.200000,-4.819905,-0.616003,1.804558,-0.438541,-1.758005,-2.255410,2.869552,3.724958,4.353392,0.021652,0.490464,0.045363,0.058802,-1.714055,0.144407,-0.473440,3.988025,-1.445943,-0.367123,-0.246767,-0.149658,-2.015667,-0.840888,-1.552226
14.300000,-4.800952,-0.663587,1.809906,-0.464228,-1.862405,-2.173648,2.873137,3.763447,4.353863,-0.132021,0.466988,-0.002774,0.315445,-1.438599,0.135913,-0.498998,3.987710,-1.488666,-0.283760,-0.233751,-0.246417,-1.756473,-0.546683,-1.564350
14.400000,-4.772790,-0.707656,1.812133,-0.466541,-1.939013,-2.090150,2.868688,3.794208,4.357060,-0.228456,0.426150,0.015711,0.617856,-1.194008,0.093342,-0.511644,4.008169,-1.551914,-0.246973,-0.174942,-0.310324,-1.453099,-0.278781,-1.624475
14.500000,-4.741222,-0.750051,1.813040,-0.438959,-1.987522,-2.007961,2.856473,3.822477,4.367965,-0.256415,0.417826,0.050602,0.933039,-1.016828,0.025864,-0.514749,4.042336,-1.623452,-0.271342,-0.105155,-0.360902,-1.147478,-0.076298,-1.719864
14.600000,-4.711593,-0.794454,1.815496,-0.377365,-2.012594,-1.930371,2.836319,3.857468,4.382740,-0.258914,0.484048,0.082516,1.195930,-0.926568,-0.024233,-0.516654,4.081472,-1.692641,-0.334357,-0.034364,-0.455445,-0.905243,0.037559,-1.797106
14.700000,-4.686914,-0.845715,1.823635,-0.283986,-2.022158,-1.858036,2.804525,3.909103,4.398506,-0.272682,0.617029,0.122008,1.355773,-0.927487,-0.048681,-0.521075,4.114919,-1.764123,-0.393219,0.030911,-0.602241,-0.766905,0.052863,-1.842390
14.800000,-4.664851,-0.908427,1.840660,-0.167171,-2.026279,-1.788408,2.770089,3.980473,4.409666,-0.269743,0.782371,0.142571,1.362935,-1.012861,-0.057413,-0.533328,4.128906,-1.844968,-0.439964,0.049783,-0.758619,-0.767508,-0.036496,-1.864181
14.900000,-4.638003,-0.983568,1.867206,-0.040057,-2.034838,-1.721051,2.751724,4.067709,4.412010,-0.187434,0.923592,0.117956,1.177394,-1.183128,-0.037885,-0.574416,4.129679,-1.918274,-0.498521,0.001240,-0.846570,-0.954603,-0.205936,-1.840451
15.000000,-4.598401,-1.064593,1.902769,0.078771,-2.057004,-1.654351,2.755344,4.163430,4.412176,-0.007450,0.969966,0.088396,0.843080,-1.408616,0.011996,-0.670415,4.171812,-1.963491,-0.566985,-0.034612,-0.806146,-1.309869,-0.358282,-1.777096
15.100000,-4.542644,-1.140329,1.944535,0.170271,-2.100743,-1.583652,2.757134,4.259125,4.423610,0.156189,0.872413,0.138724,0.440804,-1.617627,0.090030,-0.797613,4.285518,-2.009534,-0.555186,-0.008597,-0.683815,-1.724170,-0.431497,-1.745515
15.200000,-4.474624,-1.198399,1.987951,0.221766,-2.168362,-1.507937,2.755095,4.339735,4.446440,0.160980,0.676833,0.226757,0.031893,-1.768887,0.178205,-0.902278,4.416906,-2.079423,-0.396585,-0.014137,-0.599874,-2.097936,-0.469274,-1.781218
15.300000,-4.404739,-1.225360,2.025818,0.227514,-2.257605,-1.426184,2.775477,4.397566,4.471459,0.003575,0.552874,0.232776,-0.315350,-1.831636,0.223716,-0.965051,4.514115,-2.162600,-0.176672,-0.122931,-0.645799,-2.385065,-0.441469,-1.848514
15.400000,-4.344893,-1.214432,2.046703,0.190471,-2.362309,-1.337206,2.796199,4.448385,4.491679,-0.239868,0.586038,0.174024,-0.510098,-1.760018,0.227305,-1.016014,4.579602,-2.220689,0.014039,-0.245918,-0.839405,-2.554860,-0.281425,-1.864928
15.500000,-4.302408,-1.169783,2.040058,0.124324,-2.467883,-1.246247,2.774281,4.511371,4.502118,-0.563261,0.707467,0.144100,-0.516645,-1.576241,0.230780,-1.053168,4.591698,-2.251374,0.196879,-0.290203,-1.150972,-2.542336,-0.065381,-1.808035
15.600000,-4.277028,-1.099187,1.996841,0.048131,-2.559365,-1.156564,2.690485,4.587677,4.499539,-0.945434,0.737069,0.260518,-0.372924,-1.304129,0.265358,-0.999813,4.582723,-2.359334,0.468383,-0.235502,-1.400164,-2.327963,0.198672,-1.783705
15.700000,-4.262005,-1.011270,1.913676,-0.018783,-2.629306,-1.066356,2.586388,4.661594,4.489649,-1.197806,0.559288,0.574537,-0.159096,-0.976233,0.342174,-0.831402,4.600600,-2.583490,0.802099,-0.144801,-1.446513,-2.081040,0.535003,-1.885124
15.800000,-4.251696,-0.914291,1.798132,-0.059331,-2.672239,-0.975414,2.565967,4.725134,4.487264,-1.122512,0.300236,0.946191,0.048266,-0.652222,0.417660,-0.588436,4.468427,-2.859248,1.007697,-0.329916,-1.309400,-1.919473,0.748699,-2.148378
15.900000,-4.245298,-0.813706,1.661080,-0.063350,-2.685636,-0.882613,2.580380,4.778099,4.510266,-0.787961,0.073415,1.180592,0.246722,-0.353269,0.481751,-0.323271,4.353043,-3.097630,1.104555,-0.408662,-1.093983,-1.847291,1.008566,-2.469873
16.000000,-4.245342,-0.715163,1.516450,-0.028051,-2.671013,-0.787313,2.631946,4.814326,4.576942,-0.395067,-0.019246,1.226633,0.416779,-0.096279,0.514561,-0.131295,4.276445,-3.279273,1.020491,-0.367154,-0.891852,-1.967830,1.206011,-2.847818
16.100000,-4.254831,-0.625814,1.381566,0.043155,-2.629114,-0.690869,2.682252,4.831154,4.683158,-0.149259,0.018659,1.118807,0.508897,0.073650,0.517558,0.047476,4.277284,-3.401740,0.907915,-0.133350,-0.672416,-2.389044,1.337735,2.939785
16.200000,-4.271973,-0.550128,1.268779,0.137617,-2.565097,-0.592519,2.705763,4.841782,4.793879,-0.118092,0.160865,0.872037,0.493853,0.133261,0.495261,0.171695,4.193350,-3.487455,0.714385,0.115343,-0.492264,-2.450866,1.348425,2.864500
16.300000,-4.288158,-0.488695,1.188658,0.238000,-2.490179,-0.493689,2.699677,4.867464,4.868012,-0.233918,0.364887,0.466767,0.343992,0.084922,0.474605,0.225810,4.069257,-3.552468,0.479358,0.418340,-0.395198,-2.385974,1.254461,3.017949
16.400000,-4.288841,-0.436612,1.149283,0.329670,-2.414802,-0.397328,2.659159,4.911320,4.874611,-0.308968,0.504293,-0.081487,0.050540,-0.059463,0.473931,0.236659,4.093884,-3.593944,0.165678,0.753543,-0.254593,-2.643796,1.086612,3.045182
16.500000,-4.264290,-0.382382,1.146624,0.398274,-2.349133,-0.302005,2.620134,4.954297,4.822878,-0.141381,0.475457,-0.637345,-0.291452,-0.232193,0.469181,0.276301,4.311238,-3.562162,-0.214464,0.967388,0.096714,3.084501,0.949622,2.827114
16.600000,-4.215155,-0.315650,1.172754,0.432865,-2.300235,-0.207039,2.615925,4.975501,4.742913,0.205084,0.276903,-0.989439,-0.584001,-0.361560,0.455144,0.343392,4.538637,-3.442305,-0.506070,0.961254,0.463601,2.539902,0.849511,2.507411
16.700000,-4.147046,-0.232592,1.221361,0.433442,-2.266667,-0.114105,2.631341,4.967501,4.651776,0.515766,0.037612,-1.079809,-0.794400,-0.450809,0.464957,0.383493,4.713395,-3.284039,-0.670937,0.851593,0.620882,2.122290,0.778789,2.231298
16.800000,-4.071507,-0.137111,1.282992,0.405638,-2.244288,-0.023121,2.680167,4.949942,4.557061,0.695736,-0.094476,-1.027782,-0.901165,-0.493862,0.489298,0.346715,4.799407,-3.161096,-0.728371,0.748860,0.594952,1.908559,0.762891,2.102905
16.900000,-4.001083,-0.037811,1.349461,0.357647,-2.229522,0.067990,2.750734,4.935401,4.454572,0.730948,-0.110717,-0.967296,-0.895098,-0.461441,0.523429,0.219296,4.798130,-3.103306,-0.727350,0.667400,0.509768,1.938359,0.830222,2.155669
17.000000,-3.941738,0.058821,1.415158,0.303422,-2.215533,0.161973,2.815653,4.927267,4.346037,0.612975,-0.033285,-0.915802,-0.806160,-0.347957,0.566326,0.038809,4.759552,-3.089879,-0.664733,0.634259,0.405509,2.182397,0.961366,2.353125
17.100000,-3.897953,0.148526,1.473944,0.255769,-2.193533,0.259601,2.854717,4.929513,4.244418,0.368086,0.091012,-0.827016,-0.657357,-0.167997,0.608109,-0.126804,4.730772,-3.098361,-0.533787,0.646722,0.268083,2.587107,1.128512,2.628867
17.200000,-3.874091,0.227689,1.520554,0.221872,-2.155727,0.360278,2.860948,4.944806,4.163098,0.088728,0.204441,-0.676220,-0.459324,0.045428,0.625093,-0.219600,4.737500,-3.113774,-0.345186,0.649941,0.135060,3.044344,1.324341,2.869616
17.300000,-3.869980,0.295684,1.552105,0.207294,-2.096684,0.463776,2.841688,4.972625,4.108778,-0.118111,0.298714,-0.463195,-0.245784,0.251115,0.614125,-0.222911,4.771519,-3.124092,-0.126583,0.608965,0.066688,-3.037092,1.540050,2.821292
17.400000,-3.883692,0.352450,1.569269,0.214700,-2.014884,0.567352,2.809920,5.009565,4.076689,-0.210510,0.373399,-0.248727,-0.052495,0.401416,0.588492,-0.165519,4.814357,-3.122013,0.053997,0.535866,0.073767,0.515327,1.419814,-0.141740
17.500000,-3.912260,0.397109,1.575435,0.243198,-1.913157,0.667964,2.779910,5.051131,4.061772,-0.227883,0.414144,-0.088410,0.094543,0.469429,0.559346,-0.093159,4.851876,-3.112458,0.160414,0.467996,0.099785,0.938745,1.468192,0.096102
17.600000,-3.950853,0.431231,1.574790,0.290060,-1.798689,0.765513,2.754085,5.094869,4.058946,-0.227429,0.437115,0.000210,0.160088,0.459883,0.535052,-0.025412,4.885775,-3.098378,0.221423,0.427703,0.110053,1.124217,1.439559,0.188741
17.700000,-3.995586,0.456980,1.572079,0.348512,-1.680677,0.859800,2.730577,5.139762,4.061246,-0.232063,0.452618,0.025346,0.132019,0.357516,0.508392,0.026150,4.921289,-3.081041,0.254024,0.417312,0.115466,1.128546,1.327257,0.198521
17.800000,-4.044299,0.475715,1.570393,0.408973,-1.567895,0.950692,2.706746,5.186012,4.061942,-0.245078,0.472647,-0.009663,0.028913,0.164885,0.493747,0.057570,4.962184,-3.061342,0.265093,0.441070,0.120380,1.028113,1.134770,0.196167
17.900000,-4.096018,0.489436,1.571259,0.462744,-1.470154,1.039764,2.681761,5.234960,4.056380,-0.237880,0.494059,-0.092480,-0.122106,-0.060043,0.496267,0.074187,5.010194,-3.042164,0.250409,0.482672,0.122768,0.868247,0.914628,0.199848
18.000000,-4.150465,0.500428,1.575717,0.502887,-1.395076,1.128816,2.659207,5.286221,4.043549,-0.194607,0.507080,-0.174473,-0.285288,-0.270615,0.503543,0.082952,5.064975,-3.025222,0.226721,0.511062,0.127161,0.693233,0.705985,0.200506
18.100000,-4.207802,0.508588,1.582621,0.525829,-1.342685,1.218771,2.642801,5.339190,4.026326,-0.138692,0.523826,-0.210170,-0.424153,-0.445071,0.498663,0.090650,5.123661,-3.009230,0.220154,0.517912,0.149997,0.544551,0.527470,0.185146
18.200000,-4.266898,0.509819,1.591867,0.531703,-1.309733,1.308711,2.633038,5.393832,4.007671,-0.105796,0.544560,-0.202671,-0.490847,-0.552020,0.479743,0.100767,5.182529,-2.990596,0.217857,0.510725,0.193672,0.472354,0.413834,0.157559
18.300000,-4.325022,0.500500,1.604149,0.524963,-1.291913,1.396949,2.623856,5.449643,3.989844,-0.115539,0.561339,-0.169394,-0.451356,-0.583754,0.466963,0.112164,5.237848,-2.966283,0.212627,0.494594,0.248658,0.509841,0.378162,0.139384
18.400000,-4.380539,0.481276,1.617712,0.516166,-1.281050,1.483482,2.610061,5.506424,3.977423,-0.169241,0.573754,-0.093694,-0.326407,-0.561844,0.468037,0.126071,5.287146,-2.933940,0.223986,0.458371,0.319929,0.634043,0.398570,0.138421
18.500000,-4.431744,0.452287,1.632710,0.516824,-1.269985,1.569662,2.588728,5.562418,3.976680,-0.236917,0.561089,0.027216,-0.161485,-0.505890,0.456313,0.146910,5.324832,-2.892831,0.250383,0.394611,0.389403,0.798368,0.453994,0.127112
18.600000,-4.475243,0.411787,1.650494,0.533122,-1.254806,1.655341,2.562200,5.615541,3.988804,-0.275872,0.527275,0.145789,0.000548,-0.446533,0.434651,0.175777,5.349545,-2.844441,0.274679,0.328136,0.427105,0.961513,0.512811,0.106851
18.700000,-4.509436,0.362938,1.670302,0.566991,-1.232788,1.738666,2.535104,5.664695,4.009794,-0.282204,0.492837,0.224335,0.114571,-0.417456,0.424857,0.209147,5.364580,-2.793981,0.289682,0.285298,0.437513,1.078145,0.540522,0.098440
18.800000,-4.535799,0.310596,1.692315,0.616220,-1.205969,1.820369,2.506754,5.712812,4.036407,-0.272502,0.487980,0.235164,0.151348,-0.417181,0.404485,0.243631,5.376757,-2.742347,0.283938,0.294395,0.430395,1.115788,0.539954,0.079778
18.900000,-4.557143,0.257361,1.715703,0.673448,-1.177923,1.901842,2.480666,5.763212,4.058364,-0.231177,0.518323,0.151822,0.106464,-0.463474,0.363959,0.272347,5.395955,-2.693701,0.256199,0.366797,0.395087,1.069122,0.494951,0.042435
19.000000,-4.579600,0.207577,1.737553,0.730226,-1.150488,1.980181,2.464073,5.817766,4.066156,-0.146000,0.560915,0.022844,-0.023698,-0.598814,0.335914,0.290320,5.430520,-2.655991,0.229662,0.458664,0.345587,0.933817,0.364342,0.017459
19.100000,-4.608463,0.161985,1.757759,0.778628,-1.131450,2.053989,2.458874,5.876028,4.064196,-0.023103,0.584223,-0.072394,-0.232467,-0.805204,0.338900,0.299747,5.482507,-2.628698,0.212352,0.519399,0.295652,0.717172,0.161117,0.019879
19.200000,-4.641463,0.116325,1.778145,0.809469,-1.130868,2.126221,2.461360,5.934314,4.066149,0.099928,0.575480,-0.082282,-0.472330,-1.042142,0.379712,0.305275,5.547036,-2.607848,0.206830,0.532234,0.266710,0.468218,-0.082892,0.052445
19.300000,-4.673477,0.068793,1.800452,0.815488,-1.152690,2.200154,2.468955,5.991498,4.079082,0.144721,0.574320,-0.016113,-0.689522,-1.273847,0.461533,0.311498,5.615746,-2.584554,0.187098,0.517829,0.306165,0.246276,-0.336429,0.117662
19.400000,-4.697783,0.018402,1.826451,0.795710,-1.199243,2.280709,2.479513,6.049997,4.095928,0.100543,0.602002,0.053917,-0.847324,-1.439657,0.526733,0.316070,5.682855,-2.554490,0.115481,0.506563,0.393443,0.091673,-0.528230,0.163014
19.500000,-4.706399,-0.036094,1.855766,0.754586,-1.268399,2.369879,2.488345,6.112822,4.109429,0.021372,0.650920,0.085179,-0.914103,-1.492548,0.534064,0.313758,5.746870,-2.520598,0.008707,0.507585,0.470751,0.030586,-0.596474,0.156961
19.600000,-4.695681,-0.093406,1.885665,0.700046,-1.348803,2.462426,2.486553,6.180297,4.118111,-0.070756,0.700237,0.078494,-0.846518,-1.453282,0.514472,0.302263,5.805629,-2.478337,-0.088816,0.515675,0.511728,0.103349,-0.564623,0.130931
19.700000,-4.667105,-0.152582,1.912098,0.644359,-1.429139,2.554211,2.468656,6.249430,4.124681,-0.160647,0.709436,0.057020,-0.633233,-1.365451,0.471585,0.286473,5.853235,-2.421846,-0.142651,0.515595,0.509416,0.322221,-0.482497,0.083954
19.800000,-4.628490,-0.213541,1.930857,0.603572,-1.502563,2.643239,2.443433,6.317113,4.130790,-0.223221,0.678706,0.044848,-0.337660,-1.282167,0.392703,0.269325,5.888535,-2.351361,-0.161933,0.507851,0.479859,0.627998,-0.404527,0.005161
19.900000,-4.589190,-0.275170,1.940831,0.590603,-1.565794,2.725571,2.418175,6.381137,4.136880,-0.256766,0.633019,0.040527,-0.031986,-1.256222,0.318149,0.242512,5.915884,-2.273732,-0.168000,0.512289,0.437906,0.947214,-0.386113,-0.060167
20.000000,-4.553590,-0.336785,1.943480,0.609796,-1.622478,2.800051,2.395299,6.441331,4.140180,-0.248878,0.614958,0.026482,0.217070,-1.284747,0.282793,0.203572,5.944625,-2.214999,-0.163636,0.564077,0.393285,1.194314,-0.418540,-0.073295
20.100000,-4.526360,-0.399636,1.941713,0.659380,-1.679555,2.869735,2.366183,6.501652,4.141381,-0.225788,0.648786,0.008417,0.330197,-1.361492,0.303581,0.169272,5.979645,-2.186894,-0.162109,0.635230,0.368643,1.280668,-0.483332,-0.029215
20.200000,-4.508674,-0.466159,1.938319,0.730294,-1.742098,2.938755,2.340614,6.567300,4.141063,-0.187423,0.695370,0.004087,0.257082,-1.485323,0.376214,0.149295,6.020204,-2.178031,-0.162866,0.685793,0.347342,1.169899,-0.580565,0.062534
20.300000,-4.492656,-0.536083,1.934229,0.803712,-1.815135,3.012565,2.331349,6.640340,4.146274,-0.087611,0.743775,0.032276,0.025597,-1.624322,0.462603,0.130387,6.075663,-2.170676,-0.160379,0.742907,0.308836,0.909067,-0.696291,0.165052
20.400000,-4.472791,-0.608171,1.930363,0.860363,-1.902410,3.095716,2.346776,6.717336,4.160995,0.104395,0.763640,0.097044,-0.318711,-1.738799,0.522160,0.100553,6.161117,-2.170818,-0.142651,0.809429,0.231143,0.544607,-0.811854,0.239347
20.500000,-4.449046,-0.683710,1.926310,0.886774,-2.002755,-3.095590,2.366200,6.784477,4.186753,0.335101,0.679785,0.176172,-0.711266,-1.814553,0.549361,0.092002,6.258081,-2.185767,-0.071205,0.840564,0.133391,0.138662,-0.910341,0.251657
20.600000,-4.420815,-0.761765,1.920943,0.872532,-2.112567,-2.999553,2.365154,6.832004,4.223553,0.522776,0.517820,0.222493,-1.027509,-1.826596,0.550632,0.136239,6.331575,-2.191940,0.048217,0.820297,0.049435,-0.158374,-0.947988,0.171162
20.700000,-4.388165,-0.840202,1.914942,0.816842,-2.227867,-2.903895,2.387056,6.866307,4.260680,0.665616,0.358517,0.206055,-1.172495,-1.761274,0.497939,0.191779,6.387678,-2.180664,0.154167,0.767430,-0.023880,-0.250313,-0.905768,0.026971
20.800000,-4.353841,-0.920072,1.909274,0.734161,-2.340875,-2.813144,2.466702,6.896339,4.283600,0.757199,0.279002,0.130945,-1.108096,-1.625659,0.414360,0.220004,6.457583,-2.185430,0.203593,0.728449,-0.087480,-0.141026,-0.789671,-0.089263
20.900000,-4.319691,-1.001129,1.906135,0.645982,-2.441711,-2.731012,2.568455,6.931232,4.292718,0.745384,0.326709,0.008559,-0.832847,-1.438499,0.338584,0.254298,6.537593,-2.213789,0.203386,0.723272,-0.112397,0.150497,-0.603638,-0.167282
21.000000,-4.284500,-1.078888,1.905785,0.574838,-2.524227,-2.656885,2.637559,6.982215,4.305985,0.595316,0.466343,-0.105165,-0.395097,-1.240579,0.287538,0.284438,6.615877,-2.243143,0.177091,0.730274,-0.092346,0.563712,-0.369936,-0.199856
21.100000,-4.247800,-1.151989,1.906391,0.541767,-2.584863,-2.587566,2.687170,7.047946,4.326223,0.360361,0.607799,-0.133014,0.076513,-1.087729,0.270284,0.294262,6.685779,-2.231331,0.149277,0.726810,-0.016542,1.018142,-0.168817,-0.182979
21.200000,-4.208267,-1.222159,1.908435,0.557677,-2.623258,-2.519354,2.738724,7.115302,4.341053,0.114579,0.677865,-0.072649,0.434207,-1.020163,0.265124,0.315842,6.733389,-2.160341,0.136540,0.676991,0.115502,1.401868,-0.072592,-0.174010
21.300000,-4.162638,-1.287968,1.908626,0.618246,-2.646502,-2.448745,2.764497,7.181985,4.345418,-0.071638,0.693381,0.001837,0.612130,-1.047888,0.255563,0.315467,6.777312,-2.108562,0.118220,0.594205,0.225549,1.585568,-0.080511,-0.159624
21.400000,-4.109645,-1.346540,1.902429,0.708372,-2.665189,-2.376348,2.735855,7.253494,4.344271,-0.191252,0.684784,0.057043,0.581346,-1.195586,0.268587,0.312670,6.814654,-2.085380,0.089664,0.486462,0.298054,1.519041,-0.190446,-0.128217
21.500000,-4.049747,-1.393988,1.887888,0.807447,-2.691464,-2.303531,2.670873,7.325680,4.345481,-0.276551,0.620690,0.097448,0.333753,-1.473194,0.314772,0.376697,6.814122,-1.965454,0.048442,0.309124,0.375861,1.304592,-0.422452,-0.155156
21.600000,-3.988237,-1.422300,1.858450,0.892035,-2.740229,-2.228486,2.591193,7.390736,4.346111,-0.387905,0.534591,0.109652,-0.094003,-1.825560,0.381557,0.546216,6.745536,-1.628779,-0.073476,0.024236,0.455304,1.222901,-0.667754,-0.442945
21.700000,-3.937377,-1.425317,1.808401,0.940402,-2.822956,-2.150770,2.522747,7.449741,4.327674,-0.574753,0.554390,0.070183,-0.612876,-2.153765,0.469714,0.570703,6.692002,-1.164477,-0.412983,-0.332087,0.386096,1.386237,-0.766234,-0.933450
21.800000,-3.911744,-1.402697,1.733915,0.938154,-2.943768,-2.069020,2.482523,7.521314,4.285579,-0.776339,0.818892,0.053273,-1.069836,-2.304003,0.545311,-0.042766,6.929479,-1.200246,-0.821986,-0.498538,0.289408,1.850145,-1.334190,-1.440915
21.900000,-3.926093,-1.361909,1.626316,0.882809,-3.096485,-1.980323,2.429260,7.630954,4.283403,-0.864701,1.225750,0.074489,-1.320250,-2.263766,0.569954,-0.292175,6.951799,-1.017289,-1.296341,-0.693272,-0.302079,1.919078,-0.846013,-1.505086
22.000000,-3.981357,-1.326259,1.482659,0.787887,3.022398,-1.887311,2.371790,7.781745,4.302640,-0.903068,1.564744,0.018068,-1.308020,-2.057466,0.549231,-0.209838,6.729428,-0.685582,-1.605708,-0.767707,-0.305637,1.802248,-0.305308,-1.136000
22.100000,-4.060081,-1.323549,1.311831,0.679321,2.871545,-1.794456,2.327660,7.949135,4.281669,-1.072271,1.665702,-0.103782,-1.074450,-1.720979,0.488619,-0.332730,6.630262,-0.690749,-1.780230,-0.748841,-0.337973,2.069745,0.072334,-1.120653
22.200000,-4.141843,-1.368013,1.127790,0.584804,2.751090,-1.704001,2.272876,8.094354,4.231859,-1.286720,1.388774,-0.062648,-0.708313,-1.384244,0.414705,-0.566065,6.727634,-0.913328,-1.805028,-0.417872,-0.178128,2.186975,0.212447,-1.228912
22.300000,-4.208670,-1.453758,0.949067,0.528945,2.665613,-1.618890,2.252491,8.213528,4.232189,-1.273598,0.875302,0.132353,-0.258172,-1.164065,0.324837,-0.865004,6.848818,-1.058092,-1.574332,-0.113855,-0.081841,2.441180,0.211612,-1.242333
22.400000,-4.251437,-1.560897,0.793135,0.529813,2.609465,-1.539660,2.181831,8.272915,4.271516,-1.127475,0.371153,0.280030,0.206674,-1.000985,0.240679,-1.078940,6.995320,-1.230891,-1.260087,0.167855,0.001823,2.773745,0.278702,-1.282179
22.500000,-4.272497,-1.669649,0.669570,0.591111,2.576794,-1.464535,2.078235,8.287027,4.319516,-0.942768,0.143523,0.283664,0.506377,-0.891399,0.172401,-1.206413,7.134282,-1.377467,-0.987581,0.294948,0.191472,2.973477,0.375143,-1.357594
22.600000,-4.276008,-1.764754,0.581894,0.698874,2.563359,-1.393951,1.952999,8.286470,4.349624,-0.799483,0.213147,0.169101,0.530319,-0.878512,0.129265,-1.297668,7.232951,-1.457252,-0.817409,0.258711,0.428473,2.933498,0.387408,-1.431948
22.700000,-4.262373,-1.840076,0.526289,0.825562,2.558912,-1.328354,1.887357,8.319643,4.352018,-0.542549,0.458300,-0.075039,0.243716,-1.003162,0.087031,-1.376118,7.267504,-1.451735,-0.669117,0.148748,0.705864,2.622096,0.254937,-1.465675
22.800000,-4.228014,-1.894346,0.495818,0.938597,2.549855,-1.266625,1.950052,8.395576,4.328214,0.029121,0.542138,-0.347306,-0.324141,-1.302335,0.017820,-1.409311,7.299300,-1.398393,-0.377663,0.137284,0.961016,2.035092,-0.053478,-1.500152
22.900000,-4.166976,-1.924673,0.485262,1.007443,2.519772,-1.209134,1.979346,8.405923,4.290197,0.529648,0.136227,-0.312163,-1.034830,-1.694666,-0.012668,-1.355430,7.450995,-1.434834,-0.005513,0.183758,0.935934,1.466658,-0.431110,-1.732139
23.000000,-4.081832,-1.932676,0.488001,1.008843,2.450377,-1.157492,1.860545,8.310591,4.240042,0.516106,-0.333537,-0.180312,-1.709074,-2.034782,0.060783,-1.258542,7.565257,-1.523950,0.156555,0.012708,0.727612,1.069226,-0.611957,-2.111551
23.100000,-3.986062,-1.923391,0.499617,0.936854,2.338323,-1.110525,1.779618,8.212206,4.205891,0.392403,-0.480454,-0.183150,-2.183546,-2.210895,0.134807,-1.185962,7.590370,-1.593942,0.115508,-0.034767,0.578012,0.730071,-0.620355,-2.333433
23.200000,-3.896376,-1.905297,0.517523,0.805004,2.198882,-1.064329,1.776803,8.146953,4.186174,0.430386,-0.346910,-0.131786,-2.389753,-2.184877,0.170236,-1.125074,7.568016,-1.635039,0.096705,0.101940,0.643691,0.544323,-0.439202,-2.421746
23.300000,-3.825977,-1.898497,0.534248,0.636593,2.051659,-1.016455,1.827029,8.122966,4.177229,0.638744,-0.029985,-0.037743,-2.279835,-1.973542,0.166067,-1.072807,7.543447,-1.618434,0.105230,0.273898,0.946582,0.641871,-0.106127,-2.468128
23.400000,-3.769725,-1.924643,0.544068,0.461373,1.916349,-0.967100,1.853168,8.146391,4.163637,0.721660,0.510832,-0.181229,-1.858252,-1.601994,0.137847,-1.091730,7.606089,-1.557660,-0.023787,0.624523,1.171792,1.079706,0.230732,-2.527506
23.500000,-3.707098,-1.989626,0.552731,0.312597,1.811644,-0.919534,1.812777,8.230859,4.177609,0.239686,1.058739,-0.298882,-1.205445,-1.206619,0.084957,-1.117637,7.854323,-1.538545,-0.003654,1.273061,1.019835,1.659066,0.419448,-2.708124
23.600000,-3.622181,-2.084776,0.569503,0.218010,1.750207,-0.877371,1.854412,8.334492,4.275949,-0.354867,1.044094,0.088350,-0.522099,-0.894549,-0.027107,-1.022487,8.078616,-1.523372,0.312501,1.613437,0.807317,2.161993,0.701709,-2.826338
23.700000,-3.514312,-2.194930,0.598259,0.194960,1.737685,-0.839098,1.942430,8.406876,4.404062,-0.654476,0.630302,0.509051,0.118966,-0.577399,-0.164821,-0.875235,8.237343,-1.490837,0.643051,1.562372,0.751012,2.695608,1.079994,-2.866150
23.800000,-3.396013,-2.307083,0.637253,0.247137,1.773152,-0.802669,1.962103,8.436953,4.522992,-0.794483,0.210254,0.687477,0.631578,-0.296519,-0.279714,-0.716240,8.365691,-1.435841,0.795423,1.332872,0.828955,-3.051473,1.332504,-2.745878
23.900000,-3.283266,-2.413599,0.681097,0.363798,1.849874,-0.769489,1.896507,8.435888,4.607802,-0.877120,0.051328,0.631599,0.926128,-0.137813,-0.352107,-0.577218,8.465508,-1.370046,0.685667,1.083122,0.925481,-2.713752,1.431332,-2.648214
24.000000,-3.186768,-2.507700,0.726138,0.524396,1.954634,-0.740143,1.784612,8.436704,4.661563,-0.895493,0.201769,0.470983,0.976650,-0.161777,-0.409696,-0.480827,8.542590,-1.301731,0.386944,0.926983,0.956166,-2.564416,1.387620,-2.568732
24.100000,-3.107618,-2.580926,0.774267,0.703036,2.067664,-0.716398,1.682044,8.464817,4.675420,-0.788644,0.506184,0.165746,0.772182,-0.370377,-0.448521,-0.440257,8.612866,-1.236568,0.018249,0.874936,0.919743,-2.624181,1.185366,-2.481765
24.200000,-3.038002,-2.624626,0.829208,0.873960,2.168087,-0.700026,1.642054,8.522060,4.642230,-0.498686,0.666474,-0.317168,0.356171,-0.713025,-0.466551,-0.449267,8.673859,-1.165099,-0.289294,0.828497,0.895550,-2.906368,0.855393,-2.368477
24.300000,-2.965344,-2.639731,0.890191,1.013919,2.237337,-0.687199,1.658829,8.573021,4.573752,-0.087107,0.472461,-0.708341,-0.149410,-1.075267,-0.471904,-0.460711,8.684874,-1.047037,-0.435013,0.719041,0.925528,3.005408,0.562553,-2.257590
24.400000,-2.883507,-2.636110,0.952135,1.105655,2.264315,-0.674332,1.673550,8.579997,4.486278,0.197956,0.077160,-0.854521,-0.619570,-1.334280,-0.448540,-0.435507,8.668463,-0.901456,-0.398564,0.590743,0.983022,2.668225,0.419948,-2.198327
24.500000,-2.793778,-2.618809,1.013778,1.146291,2.253832,-0.660739,1.668166,8.545647,4.391856,0.268925,-0.239919,-0.889139,-0.972373,-1.454119,-0.415666,-0.386570,8.656822,-0.760646,-0.268528,0.522410,0.980457,2.418424,0.417813,-2.189289
24.600000,-2.700927,-2.594364,1.076898,1.144020,2.221346,-0.645680,1.667733,8.500680,4.299350,0.241502,-0.321782,-0.922890,-1.111813,-1.434037,-0.417230,-0.353022,8.646409,-0.628090,-0.188818,0.535916,0.914113,2.347146,0.528349,-2.196507
24.700000,-2.612366,-2.574818,1.141862,1.113947,2.182819,-0.630996,1.674291,8.469536,4.203905,0.187470,-0.177609,-0.983476,-0.976896,-1.292412,-0.453273,-0.363193,8.640624,-0.505459,-0.203916,0.619807,0.827383,2.546097,0.725199,-2.185218
24.800000,-2.530922,-2.568694,1.208642,1.082253,2.153620,-0.619898,1.667117,8.468939,4.104955,0.038450,0.165249,-0.990359,-0.599803,-1.079890,-0.497617,-0.413389,8.655942,-0.405002,-0.241352,0.775268,0.703487,3.038348,0.961609,-2.110843
24.900000,-2.455594,-2.584528,1.276314,1.077330,2.144473,-0.614056,1.632887,8.507239,4.023333,-0.288383,0.535998,-0.799427,-0.058942,-0.837620,-0.536419,-0.451001,8.713319,-0.333914,-0.150228,0.939720,0.599376,-2.540357,1.173533,-1.947605
25.000000,-2.385434,-2.629414,1.342246,1.120259,2.159534,-0.613680,1.590711,8.571802,3.986081,-0.685139,0.659978,-0.419686,0.546025,-0.580074,-0.583934,-0.422270,8.817398,-0.294758,0.052308,0.999650,0.554822,-1.970080,1.277712,-1.874517
25.100000,-2.320042,-2.702771,1.405640,1.223416,2.202551,-0.616913,1.544023,8.639441,3.993784,-0.999261,0.530447,-0.080510,1.085233,-0.320284,-0.647837,-0.306474,8.939246,-0.270085,0.295676,0.941840,0.534744,-1.931126,1.268902,-2.201428
25.200000,-2.262493,-2.802458,1.467173,1.384187,2.275916,-0.621981,1.463400,8.697293,4.024157,-1.196744,0.392730,0.092959,1.452923,-0.085024,-0.712228,-0.139109,9.032616,-0.213664,0.477325,0.819404,0.571345,-1.933709,1.224111,-2.421850
