t,truth_x,truth_y,truth_z,truth_roll,truth_pitch,truth_yaw,ekf_x,ekf_y,ekf_z,ekf_vx,ekf_vy,ekf_vz,ekf_roll,ekf_pitch,ekf_yaw,esekf_x,esekf_y,esekf_z,esekf_vx,esekf_vy,esekf_vz,esekf_roll,esekf_pitch,esekf_yaw
0.000000,0.000000,0.000000,0.000000,0.000000,0.000000,0.000000,0.008626,-0.048104,0.037860,0.111758,-0.545331,0.162071,0.185063,0.112302,-0.020291,0.009271,-0.052403,0.043918,0.110537,-0.535207,0.146961,0.183982,0.111675,-0.020280
0.100000,0.010585,-0.058748,0.046228,0.020343,0.222254,-0.051480,0.018473,-0.104124,0.033275,0.094166,-0.506819,-0.365799,0.268877,0.079913,-0.044938,0.019114,-0.110154,0.042061,0.094726,-0.491841,-0.389521,0.267174,0.079164,-0.044701
0.200000,0.017818,-0.118662,0.028395,0.059380,0.455316,-0.105062,0.047020,-0.162887,-0.017835,0.288891,-0.514984,-0.818136,0.070112,-0.302295,-0.070969,0.053720,-0.173512,-0.003304,0.258025,-0.461454,-0.874350,0.077687,-0.315642,-0.078245
0.300000,-0.003989,-0.175559,-0.053438,0.096140,0.669274,-0.161143,0.103288,-0.262242,-0.061921,0.678316,-0.920486,-0.708633,-0.402065,-0.977118,-0.066656,0.116038,-0.279555,-0.022930,0.572496,-0.681605,-0.978576,-0.285724,-0.997820,-0.218819
0.400000,-0.069602,-0.222602,-0.178832,0.095885,0.827745,-0.218119,0.111840,-0.425890,-0.067886,0.447726,-1.456181,-0.157351,-0.960032,-1.740940,0.014566,0.036527,-0.396591,-0.044181,0.240372,-0.952067,-0.868640,0.659958,-1.290755,-1.889703
0.500000,-0.172157,-0.260492,-0.324888,0.046681,0.902991,-0.273851,0.068370,-0.595692,-0.099877,-0.101561,-1.680488,-0.160504,-1.395545,-2.520959,0.098144,0.002455,-0.478068,0.065673,0.035938,-0.956820,-0.345820,-2.719223,-0.996283,1.430091
0.600000,-0.292498,-0.299898,-0.480354,-0.042588,0.886363,-0.329742,0.010117,-0.733841,-0.185668,-0.294545,-1.548425,-0.637808,-1.702058,3.101410,0.076600,-0.121561,-0.692335,0.097253,-0.310206,-1.144627,-0.212803,1.088587,-1.545494,-2.303562
0.700000,-0.405928,-0.355278,-0.637571,-0.170884,0.783848,-0.386761,-0.014201,-0.830525,-0.293114,-0.070744,-1.067118,-1.005701,-1.986127,2.612017,0.048713,0.041754,-0.840697,0.270553,-0.199567,-0.970362,0.111088,1.782952,-0.785039,2.726896
0.800000,-0.489080,-0.438157,-0.780772,-0.339236,0.611618,-0.444610,-0.004208,-0.883152,-0.408698,0.217672,-0.452556,-1.082277,-2.271082,2.301312,0.037291,-0.171165,-0.844695,0.213474,-0.515524,-0.441651,-0.036292,-2.840930,-1.432837,1.105980
0.900000,-0.530410,-0.548520,-0.883164,-0.545014,0.390587,-0.502981,0.022406,-0.889574,-0.516121,0.225815,0.103297,-0.951635,-2.417673,2.201709,0.043098,-0.221490,-0.914825,0.267556,-0.468171,-0.030055,-0.010303,1.045151,-1.258729,-3.048996
1.000000,-0.534608,-0.667425,-0.916150,-0.779137,0.143635,-0.560569,0.040208,-0.857036,-0.606629,-0.028806,0.497216,-0.762995,-2.326471,2.366232,0.066319,-0.332736,-0.929782,0.285775,-0.462720,0.423406,-0.046813,1.360642,-1.150059,3.121609
1.100000,-0.516367,-0.757004,-0.869920,-1.016128,-0.100543,-0.616291,0.026455,-0.792316,-0.677783,-0.298454,0.829251,-0.548955,-2.080927,2.755616,0.080787,-0.443934,-0.915616,0.293516,-0.519195,0.836080,-0.275081,1.808112,-0.933255,2.939414
1.200000,-0.485748,-0.781668,-0.767826,-1.233361,-0.314001,-0.669949,-0.020103,-0.701289,-0.735671,-0.457403,1.082528,-0.438425,-1.770440,-2.972887,0.066509,-0.529027,-0.863639,0.273026,-0.518809,1.064873,-0.588741,2.072028,-0.594267,2.773536
1.300000,-0.442405,-0.736782,-0.650092,-1.421081,-0.478456,-0.723117,-0.101778,-0.599782,-0.774788,-0.648354,1.113514,-0.344322,-1.474783,-2.288155,0.021242,-0.550099,-0.818849,0.226407,-0.371816,1.004144,-0.870753,2.208304,-0.070025,2.653301
1.400000,-0.385385,-0.648226,-0.546515,-1.569229,-0.579849,-0.778064,-0.187182,-0.502676,-0.770888,-0.797998,0.925764,-0.039456,-1.253008,-1.586093,-0.029141,-0.471955,-0.830458,0.151705,-0.124028,0.674401,-0.984645,2.285365,0.507402,2.407544
1.500000,-0.321158,-0.548476,-0.464797,-1.679179,-0.606492,-0.835063,-0.251122,-0.429864,-0.732728,-0.774609,0.565162,0.299616,-1.023115,-1.074951,-0.083481,-0.369250,-0.884027,0.068175,-0.061822,0.334053,-0.826070,2.242866,0.857469,2.006396
1.600000,-0.261911,-0.458293,-0.397495,-1.760616,-0.562531,-0.895084,-0.316693,-0.400728,-0.681409,-0.702088,0.105061,0.443524,-0.739700,-0.888172,-0.134587,-0.324155,-0.940897,-0.008751,-0.244324,0.160026,-0.636903,2.370633,0.881291,1.765724
1.700000,-0.218118,-0.386041,-0.334205,-1.810898,-0.477751,-0.959276,-0.381086,-0.416681,-0.638484,-0.590963,-0.321381,0.330532,-0.487524,-1.006174,-0.149467,-0.335585,-0.969916,-0.068937,-0.491619,0.142459,-0.473707,2.580011,0.643757,1.686223
1.800000,-0.194412,-0.333014,-0.266534,-1.829737,-0.392396,-1.025196,-0.424142,-0.467093,-0.617850,-0.374133,-0.639421,0.133982,-0.288420,-1.296287,-0.137821,-0.393503,-0.975118,-0.100699,-0.710783,0.148715,-0.285512,2.752051,0.299708,1.689807
1.900000,-0.191759,-0.296733,-0.189153,-1.825642,-0.331444,-1.089725,-0.439804,-0.539022,-0.610153,-0.085991,-0.833309,0.042524,-0.140252,-1.647702,-0.121266,-0.488600,-0.984703,-0.105454,-0.877811,0.076399,-0.100435,2.831330,-0.053028,1.726309
2.000000,-0.208991,-0.272577,-0.101475,-1.802082,-0.303411,-1.150698,-0.436138,-0.625432,-0.599744,0.110424,-0.936969,0.081021,-0.111405,-1.977966,-0.106031,-0.599403,-1.007620,-0.104167,-0.978194,-0.038559,-0.010915,2.789845,-0.372481,1.742696
2.100000,-0.242274,-0.254176,-0.007019,-1.766006,-0.311828,-1.207750,-0.425330,-0.724503,-0.587981,0.115569,-1.014428,0.088786,-0.225089,-2.180044,-0.102603,-0.710905,-1.027027,-0.108857,-1.025491,-0.093142,-0.062351,2.648836,-0.571396,1.733827
2.200000,-0.283577,-0.232940,0.090057,-1.733981,-0.350648,-1.263890,-0.422437,-0.830359,-0.586898,-0.041377,-1.039459,-0.053245,-0.406856,-2.168851,-0.103652,-0.813229,-1.033506,-0.128188,-1.002263,-0.034891,-0.237060,2.465998,-0.560211,1.718581
2.300000,-0.318949,-0.199963,0.185982,-1.719575,-0.400154,-1.320697,-0.442700,-0.930124,-0.602029,-0.314029,-0.939426,-0.242467,-0.576530,-1.947054,-0.107390,-0.895088,-1.035546,-0.173017,-0.882150,0.044791,-0.480256,2.302640,-0.339706,1.695036
2.400000,-0.334116,-0.150934,0.277944,-1.724797,-0.436485,-1.377950,-0.486326,-1.015308,-0.623471,-0.647941,-0.744933,-0.288508,-0.711518,-1.597452,-0.116900,-0.949185,-1.058295,-0.235996,-0.701990,0.014597,-0.718106,2.179796,0.000167,1.665017
2.500000,-0.321871,-0.087359,0.365294,-1.746423,-0.441454,-1.437264,-0.540598,-1.085442,-0.633389,-0.911912,-0.534544,-0.126379,-0.771641,-1.205062,-0.120522,-0.984543,-1.123753,-0.290862,-0.523331,-0.156679,-0.852965,2.143301,0.360478,1.640610
2.600000,-0.280341,-0.014182,0.448571,-1.783846,-0.405590,-1.498916,-0.596836,-1.150386,-0.623527,-1.017308,-0.471185,0.139641,-0.633882,-0.811772,-0.121331,-1.024957,-1.221805,-0.318019,-0.441600,-0.394310,-0.840356,2.268638,0.697457,1.594367
2.700000,-0.212141,0.061970,0.527922,-1.826697,-0.325028,-1.561421,-0.648876,-1.231459,-0.603324,-0.962190,-0.653057,0.295651,-0.251861,-0.460140,-0.121537,-1.088166,-1.309504,-0.305782,-0.510424,-0.555200,-0.685270,2.490685,0.944167,1.476169
2.800000,-0.126758,0.135345,0.604555,-1.847764,-0.199912,-1.623620,-0.702693,-1.332168,-0.595427,-0.855018,-0.888935,0.165704,0.213777,-0.191159,-0.104092,-1.169132,-1.362552,-0.275508,-0.657184,-0.560366,-0.449353,2.733857,1.090025,1.346032
2.900000,-0.037936,0.202827,0.684226,-1.825155,-0.037174,-1.683465,-0.770846,-1.433095,-0.611432,-0.806025,-0.950324,-0.154077,0.586559,-0.022858,-0.073375,-1.258632,-1.390357,-0.240881,-0.790395,-0.411422,-0.182564,2.942097,1.159569,1.249122
3.000000,0.038336,0.262272,0.776384,-1.758509,0.150854,-1.739414,-0.852220,-1.514720,-0.655577,-0.802945,-0.784091,-0.519512,0.830536,0.022099,-0.042381,-1.349917,-1.394964,-0.198553,-0.839339,-0.146792,0.090757,3.118935,1.132768,1.231698
3.100000,0.084372,0.310618,0.886818,-1.660502,0.350293,-1.791355,-0.938244,-1.565473,-0.729601,-0.783818,-0.459222,-0.867995,0.984603,-0.038845,-0.026743,-1.437351,-1.380346,-0.138819,-0.800221,0.152097,0.375938,-3.039062,1.018446,1.231150
3.200000,0.085079,0.346691,1.011461,-1.542058,0.548413,-1.839865,-1.016158,-1.581240,-0.831145,-0.678062,-0.074338,-1.171979,1.054345,-0.174732,-0.030687,-1.516444,-1.352864,-0.056088,-0.712675,0.406172,0.674255,-2.999075,0.840158,1.201272
3.300000,0.032925,0.375785,1.138610,-1.410474,0.735207,-1.887029,-1.066000,-1.573350,-0.957120,-0.448643,0.243795,-1.425221,1.037120,-0.371436,-0.041912,-1.589020,-1.320856,0.047748,-0.651629,0.562820,0.955380,-3.054309,0.609030,1.131282
3.400000,-0.068485,0.409573,1.255713,-1.276171,0.902456,-1.935059,-1.076762,-1.557274,-1.097551,-0.103928,0.400252,-1.594093,0.948567,-0.590421,-0.045406,-1.660267,-1.284563,0.159677,-0.688500,0.623604,1.145384,3.099910,0.360024,1.028945
3.500000,-0.204384,0.460311,1.356174,-1.148932,1.044373,-1.985068,-1.046725,-1.554566,-1.238831,0.275167,0.345639,-1.641319,0.794210,-0.809357,-0.018217,-1.736007,-1.232708,0.253515,-0.820829,0.645359,1.173761,2.928586,0.122403,0.907259
3.600000,-0.355164,0.533771,1.441286,-1.035950,1.158778,-2.037201,-0.986414,-1.563007,-1.376335,0.635313,0.144903,-1.561660,0.598156,-1.023170,0.027090,-1.820703,-1.155367,0.314673,-0.977278,0.664374,1.042800,2.754906,-0.099607,0.788405
3.700000,-0.503697,0.626494,1.516810,-0.944573,1.245657,-2.089697,-0.912984,-1.586861,-1.495939,0.874704,-0.140287,-1.365990,0.384662,-1.213268,0.076478,-1.913810,-1.057670,0.343545,-1.074442,0.673922,0.780914,2.606696,-0.299763,0.694298
3.800000,-0.639767,0.727627,1.589045,-0.876114,1.306829,-2.140096,-0.825920,-1.646155,-1.598563,0.928785,-0.457123,-1.132489,0.163756,-1.387556,0.131335,-2.003826,-0.950946,0.342620,-1.063030,0.662451,0.435100,2.485043,-0.472704,0.628602
3.900000,-0.760276,0.823600,1.662709,-0.828951,1.345355,-2.187058,-0.745944,-1.730831,-1.684725,0.791643,-0.715830,-0.931820,-0.022684,-1.552815,0.168417,-2.084140,-0.849644,0.316709,-0.930812,0.619210,0.060228,2.406229,-0.628002,0.584472
4.000000,-0.867217,0.901195,1.740905,-0.801885,1.364018,-2.230601,-0.686624,-1.830307,-1.761678,0.518740,-0.880327,-0.832479,-0.138430,-1.718654,0.180386,-2.145236,-0.760020,0.267933,-0.700043,0.556307,-0.313527,2.383211,-0.776255,0.555168
4.100000,-0.965098,0.949668,1.825803,-0.786857,1.364796,-2.272011,-0.650953,-1.931886,-1.843065,0.193479,-0.954213,-0.869043,-0.210895,-1.882559,0.171030,-2.177138,-0.684915,0.197001,-0.390673,0.495811,-0.661493,2.372089,-0.916104,0.539123
4.200000,-1.058271,0.962932,1.919128,-0.776894,1.348244,-2.312917,-0.641713,-2.026242,-1.940101,-0.131264,-0.957558,-1.029740,-0.270559,-2.018643,0.150186,-2.172509,-0.625892,0.105373,-0.023362,0.450427,-0.959690,2.339287,-1.029117,0.535353
4.300000,-1.150221,0.939747,2.023156,-0.771897,1.315740,-2.354847,-0.662964,-2.111044,-2.059828,-0.442905,-0.883725,-1.270311,-0.351294,-2.090427,0.129164,-2.129811,-0.580909,-0.008528,0.356731,0.390073,-1.197613,2.274184,-1.085008,0.527211
4.400000,-1.242883,0.882845,2.141200,-0.772674,1.272460,-2.398723,-0.728725,-2.177337,-2.202153,-0.782302,-0.675970,-1.506100,-0.504745,-2.065193,0.116606,-2.056872,-0.558764,-0.147173,0.683874,0.277300,-1.393878,2.161990,-1.056818,0.489735
4.500000,-1.336664,0.798684,2.276350,-0.785001,1.226798,-2.444060,-0.851746,-2.212202,-2.357308,-1.156851,-0.311147,-1.614600,-0.747729,-1.930958,0.126544,-1.979238,-0.587356,-0.299179,0.876774,0.118213,-1.561126,1.991089,-0.929855,0.463662
4.600000,-1.430268,0.695736,2.429906,-0.817946,1.189989,-2.489810,-1.027095,-2.203984,-2.509394,-1.484371,0.206657,-1.501425,-1.098761,-1.701919,0.177301,-1.925887,-0.709278,-0.434515,0.870219,-0.095897,-1.667210,1.749974,-0.691599,0.551646
4.700000,-1.520313,0.581539,2.599669,-0.877932,1.174381,-2.534305,-1.236407,-2.154392,-2.645043,-1.642031,0.729921,-1.243564,-1.560011,-1.393009,0.287034,-1.894563,-0.938440,-0.549536,0.671462,-0.426450,-1.664632,1.521630,-0.320695,0.804950
4.800000,-1.603385,0.462265,2.779322,-0.970535,1.189991,-2.575424,-1.494429,-2.071515,-2.742321,-1.704119,0.958502,-1.007003,-1.978181,-1.010975,0.414689,-1.854362,-1.208904,-0.645391,0.408147,-0.767943,-1.538788,1.476809,0.070993,1.122779
4.900000,-1.677999,0.344020,2.960023,-1.094033,1.243200,-2.612062,-1.780179,-1.973767,-2.800749,-1.800676,0.797955,-0.742843,-2.164670,-0.637277,0.494155,-1.808987,-1.430159,-0.726020,0.103630,-0.977872,-1.333540,1.633022,0.343020,1.370508
5.000000,-1.745777,0.234603,3.133391,-1.233416,1.334775,-2.643700,-2.023325,-1.910174,-2.832337,-1.827596,0.389756,-0.281552,-2.096495,-0.376972,0.533447,-1.810265,-1.613912,-0.807796,-0.323112,-1.123090,-1.060471,1.953121,0.508471,1.514613
5.100000,-1.813979,0.144875,3.294609,-1.365584,1.458257,-2.671254,-2.202040,-1.898520,-2.832441,-1.665104,-0.152475,0.238813,-1.846834,-0.281508,0.532402,-1.872236,-1.760983,-0.863439,-0.799105,-1.121439,-0.683208,2.322007,0.534432,1.553618
5.200000,-1.896764,0.086069,3.442352,-1.470757,1.601065,-2.697884,-2.352410,-1.949831,-2.798741,-1.352961,-0.814064,0.477587,-1.540535,-0.326463,0.497333,-1.961029,-1.866127,-0.872610,-1.188702,-0.951347,-0.221469,2.642882,0.413049,1.526485
5.300000,-2.009172,0.066763,3.574326,-1.542392,1.747134,-2.726219,-2.461123,-2.062793,-2.788108,-0.980475,-1.446790,0.279935,-1.293725,-0.503436,0.451452,-2.038153,-1.982570,-0.833931,-1.420772,-0.818437,0.284293,2.882784,0.169436,1.491924
5.400000,-2.158391,0.092572,3.685568,-1.582214,1.881087,-2.757672,-2.515738,-2.206488,-2.832445,-0.546046,-1.870909,-0.212490,-1.123385,-0.814598,0.392141,-2.075064,-2.179134,-0.762628,-1.539086,-0.883068,0.695013,2.981805,-0.151029,1.452313
5.500000,-2.340569,0.164614,3.771550,-1.595930,1.989044,-2.793403,-2.579445,-2.377931,-2.851451,0.023818,-2.065550,-0.648296,-0.983943,-1.195122,0.315517,-2.115973,-2.439079,-0.689407,-1.677273,-1.015695,0.901941,3.019763,-0.508019,1.351612
5.600000,-2.542711,0.279729,3.832109,-1.591977,2.058173,-2.832936,-2.641637,-2.600548,-2.802108,0.625004,-2.129951,-0.751672,-0.907955,-1.606525,0.251778,-2.210379,-2.701197,-0.624084,-1.819145,-1.048138,0.920408,3.132014,-0.879449,1.122055
5.700000,-2.748533,0.430515,3.873170,-1.574504,2.079700,-2.874466,-2.599138,-2.862469,-2.784958,0.928510,-2.180099,-0.657739,-1.012296,-2.095562,0.219524,-2.356887,-2.891456,-0.560493,-1.905971,-0.845241,0.775570,-2.821483,-1.215991,0.573867
5.800000,-2.944561,0.602599,3.903615,-1.555839,2.048163,-2.917631,-2.459604,-3.093867,-2.873685,0.855706,-2.103175,-0.765346,-1.300237,-2.646720,0.174946,-2.492209,-2.969038,-0.503119,-1.816372,-0.398885,0.535046,-1.984035,-1.440971,-0.587249
5.900000,-3.124050,0.775116,3.931135,-1.562136,1.960624,-2.964457,-2.370779,-3.254234,-2.953908,0.782042,-1.650424,-1.027504,-1.650876,-3.100779,0.084160,-2.567715,-2.979369,-0.537613,-1.471269,-0.033844,0.268520,1.338043,-1.430192,2.025208
6.000000,-3.286677,0.924883,3.962285,-1.609085,1.821862,-3.016163,-2.331480,-3.354322,-2.990802,0.863374,-0.842684,-1.117233,-2.065000,2.905972,0.008260,-2.627098,-2.898791,-0.503614,-0.925591,0.375281,0.185636,-2.791367,-1.346833,-0.541640
6.100000,-3.433646,1.029917,4.004893,-1.703030,1.644728,-3.070744,-2.312806,-3.356142,-3.028283,0.875884,0.101860,-0.825376,-2.544656,2.820369,-0.039675,-2.609846,-2.816489,-0.514100,-0.218671,0.487607,-0.094890,2.710725,-1.378290,-0.218345
6.200000,-3.562920,1.072194,4.066990,-1.853044,1.446136,-3.125346,-2.293344,-3.291837,-3.031789,0.745872,0.754536,-0.189224,-2.967222,2.948202,-0.050420,-2.550258,-2.775051,-0.584640,0.374640,0.224034,-0.400259,2.371056,-1.210583,-0.258578
6.300000,-3.662378,1.040400,4.150749,-2.055755,1.246497,3.105335,-2.214600,-3.224633,-2.976775,0.744861,0.951530,0.530982,3.009793,-3.028718,-0.014687,-2.500367,-2.789074,-0.732077,0.638030,-0.228091,-0.800279,2.184718,-0.892250,-0.375978
6.400000,-3.710874,0.934199,4.242332,-2.296839,1.067047,3.055827,-2.044108,-3.173785,-2.893918,1.079709,0.854608,0.933987,2.860511,-2.630332,0.031625,-2.495095,-2.836484,-0.900528,0.531189,-0.616291,-1.166980,2.048440,-0.500206,-0.424075
6.500000,-3.693203,0.768707,4.312475,-2.564742,0.924586,3.007380,-1.824144,-3.102042,-2.844014,1.540090,0.786313,0.800984,2.919990,-2.210062,0.025948,-2.532620,-2.876185,-1.040527,0.264882,-0.810537,-1.343378,2.092443,-0.106646,-0.420166
6.600000,-3.608576,0.574289,4.333230,-2.842298,0.830170,2.956951,-1.601320,-2.997653,-2.850085,1.797246,0.856522,0.263010,-3.140479,-1.821846,-0.052822,-2.587276,-2.901000,-1.154869,0.000252,-0.798779,-1.336094,2.228553,0.217090,-0.436707
6.700000,-3.468195,0.387424,4.297524,-3.107486,0.788438,2.902130,-1.423388,-2.874796,-2.889020,1.773329,1.029107,-0.401757,-2.857325,-1.489022,-0.188596,-2.636509,-2.897778,-1.235641,-0.211695,-0.579429,-1.278549,2.401636,0.412621,-0.516806
6.800000,-3.288787,0.232903,4.224987,2.933617,0.794854,2.839850,-1.280004,-2.735281,-2.964504,1.534487,1.245601,-0.871589,-2.584868,-1.264679,-0.343276,-2.673527,-2.824465,-1.309600,-0.337222,-0.187831,-1.255720,2.625247,0.417682,-0.696401
6.900000,-3.086952,0.114987,4.146584,2.715371,0.836415,2.767336,-1.144374,-2.585300,-3.065880,1.209105,1.422032,-1.038042,-2.364220,-1.201831,-0.470649,-2.625178,-2.696367,-1.398430,-0.249116,0.216022,-1.181444,2.862730,0.225537,-0.865399
7.000000,-2.878392,0.024185,4.087313,2.520746,0.895940,2.684072,-1.035664,-2.429780,-3.172444,0.885647,1.480464,-1.053400,-2.216865,-1.268965,-0.544693,-2.533769,-2.585794,-1.519811,-0.086684,0.485726,-1.023241,3.006447,-0.002102,-0.935012
7.100000,-2.678763,-0.053945,4.059040,2.345012,0.955714,2.592223,-0.964622,-2.278173,-3.278237,0.547130,1.429029,-1.036876,-2.119982,-1.396060,-0.568190,-2.477137,-2.485438,-1.656431,0.026504,0.683044,-0.809413,3.089196,-0.184771,-0.950358
7.200000,-2.501846,-0.133029,4.061295,2.180305,1.003543,2.495812,-0.929666,-2.139504,-3.385057,0.192968,1.301663,-1.048073,-2.075412,-1.507903,-0.568151,-2.442245,-2.377653,-1.778559,0.091162,0.870744,-0.553333,3.129714,-0.312053,-0.952753
7.300000,-2.356792,-0.223210,4.086833,2.023414,1.037259,2.398292,-0.927799,-2.015774,-3.492708,-0.142550,1.136986,-1.070551,-2.118635,-1.557926,-0.562748,-2.418694,-2.258170,-1.874317,0.111285,1.052856,-0.279814,3.090282,-0.362717,-0.958553
7.400000,-2.247130,-0.331008,4.126742,1.868533,1.061256,2.301200,-0.955119,-1.904029,-3.599646,-0.441482,1.040219,-1.065924,-2.276057,-1.528303,-0.567119,-2.400439,-2.125138,-1.941484,0.148248,1.231739,-0.014020,2.935513,-0.324275,-0.972883
7.500000,-2.171805,-0.459985,4.172866,1.702900,1.083184,2.203955,-0.999972,-1.794927,-3.702432,-0.661796,1.120356,-0.987118,-2.548791,-1.428643,-0.580562,-2.380637,-1.978534,-1.984094,0.267868,1.391816,0.202885,2.663750,-0.199717,-0.984962
7.600000,-2.125890,-0.611115,4.218600,1.514940,1.111945,2.104580,-1.042104,-1.672015,-3.796964,-0.701434,1.351836,-0.841362,-2.908339,-1.298843,-0.592032,-2.362471,-1.819297,-2.015837,0.463108,1.498627,0.311863,2.316382,-0.019401,-0.996198
7.700000,-2.100139,-0.782214,4.259136,1.294794,1.153027,2.001863,-1.073002,-1.525576,-3.879436,-0.559334,1.594519,-0.677764,3.029005,-1.178152,-0.585520,-2.349694,-1.648685,-2.044631,0.669272,1.552178,0.298659,1.997267,0.171939,-1.009882
7.800000,-2.081314,-0.969239,4.292667,1.037955,1.207806,1.895211,-1.097231,-1.357714,-3.947258,-0.356757,1.797459,-0.542942,2.803175,-1.107336,-0.574099,-2.330317,-1.467307,-2.073350,0.829849,1.598204,0.207450,1.799738,0.298139,-1.018586
7.900000,-2.055407,-1.167849,4.321243,0.750758,1.273625,1.784481,-1.113798,-1.168580,-4.000235,-0.208033,1.981665,-0.421579,2.746541,-1.125390,-0.579143,-2.279965,-1.284333,-2.108822,0.990675,1.642856,0.084491,1.754073,0.312070,-1.029172
8.000000,-2.011780,-1.373933,4.348921,0.445752,1.343077,1.670609,-1.121375,-0.962520,-4.047450,-0.234216,2.132628,-0.325302,2.895459,-1.270270,-0.612464,-2.168379,-1.117459,-2.144782,1.220374,1.642111,-0.010298,1.906660,0.191234,-1.061096
8.100000,-1.942697,-1.583100,4.379513,0.143299,1.406054,1.553756,-1.092910,-0.769575,-4.142921,-0.444023,2.085849,-0.490400,-3.114269,-1.597789,-0.629992,-2.030782,-0.946432,-2.134958,1.368372,1.597429,0.037098,2.267743,-0.126874,-1.068267
8.200000,-1.844236,-1.786120,4.415090,-0.132418,1.446759,1.433964,-0.999880,-0.618786,-4.279830,-0.499480,1.618921,-0.859570,-2.821724,-2.036509,-0.608770,-2.000943,-0.717430,-2.081476,1.222865,1.625390,0.109354,2.660472,-0.595050,-0.992329
8.300000,-1.721108,-1.969934,4.452702,-0.363936,1.444602,1.312473,-0.940523,-0.539125,-4.401836,-0.443468,0.786835,-1.081262,-2.397090,-2.506031,-0.591995,-2.110653,-0.469621,-2.038130,0.911375,1.567310,0.001659,3.015369,-1.002595,-0.949953
8.400000,-1.585468,-2.124588,4.487057,-0.535935,1.387549,1.189312,-0.949589,-0.533183,-4.458294,-0.315705,-0.017590,-0.920518,-1.834826,-2.912035,-0.580742,-2.266356,-0.243103,-2.050208,0.643565,1.317882,-0.243226,-2.913602,-1.304616,-0.848891
8.500000,-1.452625,-2.244350,4.518378,-0.637192,1.277212,1.063696,-1.000112,-0.581531,-4.464408,-0.221531,-0.416788,-0.561077,-1.229536,3.086683,-0.543953,-2.398350,-0.079211,-2.143458,0.590962,0.966504,-0.485485,2.905266,-1.499446,0.135387
8.600000,-1.335403,-2.327418,4.554292,-0.666081,1.123080,0.935514,-1.027805,-0.644160,-4.456924,-0.093175,-0.492926,-0.374218,-0.627764,2.964864,-0.537755,-2.468259,0.004193,-2.265278,0.784444,0.758618,-0.545463,0.861500,-1.468050,2.736074
8.700000,-1.238805,-2.376689,4.606543,-0.623088,0.941542,0.803928,-1.070905,-0.712608,-4.457697,-0.003721,-0.612404,-0.525389,-0.109994,3.087511,-0.551668,-2.525407,0.074617,-2.351365,0.985613,0.858535,-0.556654,1.201672,-1.382610,2.838921
8.800000,-1.160402,-2.399088,4.688023,-0.514522,0.756009,0.667743,-1.197057,-0.791348,-4.465421,-0.207570,-0.851085,-0.877569,0.269475,-2.773520,-0.571594,-2.575818,0.171497,-2.489263,1.098159,1.054505,-0.854636,1.406304,-1.157816,2.776411
8.900000,-1.093640,-2.408678,4.809698,-0.357846,0.594120,0.526408,-1.445565,-0.881443,-4.477378,-0.789789,-0.996778,-1.110842,0.504944,-2.117759,-0.581603,-2.530640,0.278538,-2.629900,1.256039,1.289243,-1.062631,1.469295,-0.611472,2.686995
9.000000,-1.034184,-2.429883,4.973683,-0.175166,0.481961,0.380224,-1.748003,-1.008136,-4.507292,-1.364308,-1.051992,-0.900779,0.653515,-1.361711,-0.578879,-2.406708,0.423439,-2.655447,1.416506,1.528363,-0.943380,1.487495,0.151497,2.730249
9.100000,-0.984954,-2.487497,5.167648,0.012192,0.438160,0.229844,-2.000056,-1.172891,-4.539647,-1.610578,-1.104974,-0.460522,0.779909,-0.584746,-0.602862,-2.310448,0.651707,-2.533382,1.453478,1.754947,-0.578077,1.693396,0.994930,3.039138
9.200000,-0.954403,-2.591732,5.369160,0.194714,0.473497,0.075232,-2.186330,-1.331526,-4.551934,-1.662629,-1.110487,-0.016742,0.814330,0.129797,-0.627595,-2.289764,0.931175,-2.355352,1.308734,1.903204,-0.137272,-2.310733,1.280415,-0.845877
9.300000,-0.951349,-2.735735,5.555922,0.372555,0.589755,-0.082660,-2.254702,-1.506689,-4.575475,-1.476157,-1.117192,0.401107,0.664489,0.622404,-0.648958,-2.071749,1.023127,-2.294667,1.397071,1.536801,0.224076,1.107372,1.218805,2.620100
9.400000,-0.984276,-2.902223,5.712493,0.535453,0.776383,-0.241868,-2.316596,-1.654404,-4.544664,-1.236771,-1.023226,0.719059,0.399026,0.879396,-0.687940,-1.917241,1.170624,-2.172287,1.378630,1.181123,0.452953,2.868877,1.472524,-1.765364
9.500000,-1.061036,-3.063640,5.834702,0.668062,1.010920,-0.402303,-2.460101,-1.730008,-4.430076,-1.207529,-0.738252,0.915840,0.130269,0.874426,-0.738279,-1.773898,1.293427,-2.084347,1.363425,0.777183,0.637710,2.562179,1.412579,-1.872876
9.600000,-1.179657,-3.186391,5.932930,0.767726,1.262014,-0.564947,-2.656676,-1.745507,-4.292237,-1.406819,-0.360442,0.872360,-0.171470,0.557091,-0.790154,-1.546004,1.281221,-2.199083,1.557855,0.262611,0.238539,1.669212,1.085538,-2.604251
9.700000,-1.323400,-3.245055,6.025214,0.835519,1.494476,-0.730545,-2.865837,-1.734701,-4.203784,-1.690008,-0.134905,0.441264,-0.522022,-0.057621,-0.808663,-1.272270,1.139017,-2.417609,1.678318,-0.395261,-0.468740,1.241292,0.419763,-3.048240
9.800000,-1.467340,-3.229545,6.126616,0.864680,1.675171,-0.898914,-3.066904,-1.748833,-4.206289,-1.814276,-0.345824,-0.199220,-0.818425,-0.859116,-0.777672,-1.042278,0.887712,-2.620605,1.229426,-1.123692,-0.898326,1.162497,-0.163018,2.879898
9.900000,-1.588504,-3.145122,6.242920,0.853933,1.778874,-1.067004,-3.253444,-1.832089,-4.278993,-1.672953,-0.881775,-0.632429,-0.979781,-1.675975,-0.745637,-1.066665,0.843827,-2.782441,0.568670,-1.320932,-0.867910,1.503257,-0.720786,2.570159
10.000000,-1.676525,-3.007181,6.368894,0.817247,1.795283,-1.232100,-3.421188,-1.972396,-4.364357,-1.461573,-1.320607,-0.738855,-1.066592,-2.365537,-0.757918,-1.320565,1.132340,-2.970051,0.264685,-0.929875,-0.713274,2.533568,-1.197280,2.122473
10.100000,-1.734283,-2.832355,6.490928,0.766192,1.730248,-1.395269,-3.566789,-2.139907,-4.435183,-1.274645,-1.507202,-0.751274,-1.125608,-2.848261,-0.776995,-1.491938,1.172256,-3.102820,0.053486,-0.785560,-0.668458,1.678295,-1.475504,-3.048415
10.200000,-1.771162,-2.637290,6.591663,0.702396,1.601570,-1.558040,-3.687548,-2.310344,-4.499509,-1.033032,-1.503579,-0.798888,-1.145114,-3.086893,-0.776162,-1.570524,1.048007,-3.139867,-0.173324,-0.737931,-0.511988,1.576922,-1.565594,-2.954985
10.300000,-1.798831,-2.440705,6.658299,0.631166,1.434190,-1.720292,-3.775676,-2.470999,-4.577745,-0.754306,-1.363353,-0.890937,-1.114996,-3.108209,-0.769025,-1.661599,0.906382,-3.194315,-0.376662,-0.548494,-0.487240,1.988223,-1.539631,2.941374
10.400000,-1.828534,-2.259403,6.691324,0.559934,1.252720,-1.881521,-3.835852,-2.615561,-4.668050,-0.508241,-1.140760,-0.990244,-1.007786,-2.967742,-0.736665,-1.761466,0.744709,-3.256122,-0.509374,-0.301966,-0.533434,2.045922,-1.410200,2.934101
10.500000,-1.869450,-2.101576,6.704751,0.494779,1.077343,-2.041122,-3.880150,-2.745037,-4.765457,-0.398200,-0.894447,-1.099099,-0.801300,-2.710565,-0.691269,-1.870608,0.590040,-3.331667,-0.576246,-0.047271,-0.644565,2.123038,-1.204536,2.950299
10.600000,-1.925023,-1.964082,6.718366,0.445696,0.923984,-2.198767,-3.931008,-2.860561,-4.862807,-0.489932,-0.705838,-1.166113,-0.500662,-2.386085,-0.661468,-1.976941,0.465672,-3.424989,-0.581170,0.151430,-0.789828,2.222972,-0.960015,2.984400
10.700000,-1.989133,-1.835775,6.746721,0.421473,0.801758,-2.354864,-4.000808,-2.961769,-4.957541,-0.701087,-0.645769,-1.128894,-0.143813,-2.054184,-0.650686,-2.060794,0.379663,-3.530896,-0.546595,0.242167,-0.930232,2.371308,-0.718773,3.027926
10.800000,-2.049459,-1.705445,6.793224,0.428759,0.713616,-2.510090,-4.091022,-3.053186,-5.046581,-0.883061,-0.724179,-1.015338,0.202539,-1.751833,-0.656222,-2.108534,0.318737,-3.646816,-0.476216,0.185565,-1.057596,2.573842,-0.516445,3.034485
10.900000,-2.092908,-1.566865,6.851934,0.470667,0.659310,-2.665143,-4.190492,-3.141921,-5.130954,-0.938040,-0.835996,-0.919587,0.482524,-1.490593,-0.667150,-2.115796,0.262264,-3.766771,-0.360807,0.006223,-1.131093,2.787899,-0.365128,2.966000
11.000000,-2.108400,-1.420204,6.911871,0.541334,0.635056,-2.820528,-4.284052,-3.231271,-5.218680,-0.883863,-0.921875,-0.902433,0.690578,-1.291948,-0.668139,-2.103063,0.193335,-3.877919,-0.242562,-0.230162,-1.118796,2.968658,-0.273726,2.858604
11.100000,-2.089279,-1.271986,6.963911,0.635456,0.635157,-2.975382,-4.366223,-3.323407,-5.312166,-0.785375,-0.952629,-0.938253,0.794098,-1.187109,-0.643144,-2.094765,0.111481,-3.976620,-0.153293,-0.440039,-1.045933,3.059585,-0.258502,2.787424
11.200000,-2.034053,-1.131740,7.003823,0.747173,0.651779,-3.127752,-4.439179,-3.420080,-5.407461,-0.691816,-0.966244,-0.963407,0.769832,-1.191349,-0.610351,-2.096455,0.022680,-4.074072,-0.099498,-0.599457,-0.968285,3.031060,-0.323972,2.763440
11.300000,-1.944899,-1.009428,7.029935,0.862048,0.673430,3.006221,-4.502805,-3.520936,-5.502865,-0.607617,-0.992859,-0.960570,0.654545,-1.287709,-0.576437,-2.100423,-0.070431,-4.180047,-0.064346,-0.715811,-0.916389,2.920710,-0.446798,2.769236
11.400000,-1.827628,-0.914164,7.042633,0.968753,0.689153,2.860404,-4.559033,-3.625464,-5.596787,-0.551762,-1.025074,-0.934648,0.448261,-1.444690,-0.530391,-2.100949,-0.167126,-4.299034,-0.054280,-0.800601,-0.899989,2.752832,-0.595108,2.772979
11.500000,-1.690984,-0.852179,7.043273,1.060236,0.691506,2.719469,-4.614040,-3.731908,-5.688045,-0.543482,-1.046329,-0.907567,0.150980,-1.617925,-0.467484,-2.111163,-0.265418,-4.422592,-0.102550,-0.864754,-0.899565,2.562226,-0.732751,2.738898
11.600000,-1.544672,-0.825735,7.032030,1.126142,0.676353,2.583804,-4.678147,-3.833612,-5.776508,-0.596153,-1.012764,-0.908179,-0.187209,-1.750241,-0.413507,-2.144622,-0.360355,-4.538214,-0.206662,-0.893082,-0.891756,2.387499,-0.813121,2.640043
11.700000,-1.397260,-0.832408,7.008715,1.157970,0.644497,2.452437,-4.749875,-3.927650,-5.865742,-0.702816,-0.909983,-0.930041,-0.501172,-1.801873,-0.370942,-2.197893,-0.442115,-4.644633,-0.333072,-0.873618,-0.892902,2.224569,-0.810276,2.525655
11.800000,-1.254317,-0.865818,6.973381,1.152970,0.602197,2.324714,-4.834636,-4.005316,-5.958298,-0.865071,-0.767225,-0.943369,-0.736882,-1.769192,-0.330493,-2.255766,-0.508627,-4.753653,-0.435808,-0.808207,-0.934082,2.085814,-0.733933,2.457293
11.900000,-1.117895,-0.917589,6.926562,1.117377,0.558846,2.199612,-4.926650,-4.071877,-6.052098,-1.045467,-0.609288,-0.903810,-0.906197,-1.676501,-0.287489,-2.295704,-0.566175,-4.872292,-0.476746,-0.723895,-1.007696,1.966387,-0.604397,2.444091
12.000000,-0.986927,-0.980276,6.870094,1.061244,0.523401,2.076722,-5.028948,-4.127313,-6.140170,-1.219937,-0.480264,-0.796800,-1.029430,-1.556632,-0.245037,-2.300421,-0.626872,-5.000148,-0.458891,-0.664116,-1.090564,1.872971,-0.448069,2.472963
12.100000,-0.859997,-1.050395,6.806425,0.989067,0.501694,1.956896,-5.144560,-4.174726,-6.216256,-1.341918,-0.434452,-0.648576,-1.089388,-1.453101,-0.195250,-2.273972,-0.695901,-5.133961,-0.407048,-0.652849,-1.154329,1.839940,-0.314175,2.541123
12.200000,-0.737502,-1.127237,6.738401,0.906724,0.495095,1.841003,-5.274241,-4.220338,-6.278683,-1.387326,-0.497899,-0.519453,-1.093983,-1.399910,-0.127760,-2.244408,-0.761434,-5.273490,-0.363804,-0.679728,-1.191046,1.858994,-0.253263,2.642097
12.300000,-0.620945,-1.210951,6.668640,0.821317,0.499760,1.730797,-5.405730,-4.277339,-6.332852,-1.328398,-0.670786,-0.450513,-1.024244,-1.417126,-0.060368,-2.246917,-0.814864,-5.416680,-0.364971,-0.734284,-1.195138,1.942490,-0.285694,2.741356
12.400000,-0.512368,-1.301884,6.597960,0.737744,0.508346,1.628473,-5.520649,-4.353869,-6.387976,-1.101690,-0.917299,-0.458905,-0.849090,-1.510986,0.002466,-2.283948,-0.872922,-5.551914,-0.393627,-0.820615,-1.139309,2.128081,-0.404661,2.834473
12.500000,-0.414262,-1.399176,6.526322,0.667911,0.512225,1.534908,-5.625089,-4.421967,-6.440290,-0.707617,-1.109713,-0.475366,-0.611542,-1.658788,0.049098,-2.276364,-0.974273,-5.668114,-0.360220,-0.935839,-1.021573,2.370237,-0.557378,2.950583
12.600000,-0.328783,-1.500710,6.453044,0.623656,0.503048,1.449852,-5.731642,-4.458451,-6.471935,-0.264166,-1.185845,-0.422107,-0.350710,-1.811855,0.066577,-2.154079,-1.113670,-5.778232,-0.205968,-1.040020,-0.899081,2.580004,-0.692181,3.121168
12.700000,-0.256614,-1.603992,6.376447,0.608516,0.476351,1.372168,-5.825406,-4.475385,-6.475069,0.136962,-1.147226,-0.294680,-0.071672,-1.931570,0.065970,-1.954328,-1.236685,-5.894691,0.010665,-1.057925,-0.808609,2.740216,-0.793576,-2.958279
12.800000,-0.197064,-1.705834,6.296223,0.624923,0.432510,1.300297,-5.896201,-4.470795,-6.465557,0.431057,-1.013593,-0.164625,0.223622,-1.991524,0.049350,-1.755154,-1.309719,-6.007383,0.186178,-0.985027,-0.750589,2.915373,-0.842109,-2.788970
12.900000,-0.148614,-1.803191,6.214098,0.673645,0.375597,1.232644,-5.925081,-4.456325,-6.467371,0.635019,-0.829444,-0.098325,0.557974,-1.967328,0.032535,-1.589434,-1.353428,-6.086500,0.287323,-0.876009,-0.697734,-3.087175,-0.800247,-2.703826
13.000000,-0.108963,-1.894702,6.132395,0.757047,0.314138,1.168446,-5.901679,-4.446367,-6.501601,0.752500,-0.645845,-0.145396,0.889261,-1.845213,0.035432,-1.478163,-1.436861,-6.076006,0.320705,-0.804374,-0.621040,-2.713644,-0.632149,-2.757217
13.100000,-0.075421,-1.980902,6.053324,0.881015,0.260084,1.108679,-5.828394,-4.464110,-6.566570,0.801098,-0.553802,-0.289720,1.128335,-1.617930,0.053822,-1.459536,-1.617871,-5.939775,0.296588,-0.846545,-0.498067,-2.452761,-0.344596,-2.947217
13.200000,-0.045205,-2.064625,5.977204,1.041598,0.226421,1.053314,-5.750616,-4.495692,-6.655509,0.760341,-0.561537,-0.492779,1.263832,-1.302702,0.080558,-1.530013,-1.859547,-5.744107,0.191576,-0.966040,-0.371524,-2.425698,-0.017550,3.115702
13.300000,-0.016939,-2.150074,5.901253,1.226084,0.224386,1.000838,-5.704522,-4.532643,-6.759254,0.618068,-0.611467,-0.710646,1.353196,-0.917973,0.131362,-1.603983,-2.110196,-5.574040,0.078572,-1.065958,-0.306177,-2.515147,0.318992,2.967708
13.400000,0.006197,-2.239895,5.821555,1.426984,0.261421,0.951631,-5.692780,-4.582748,-6.869517,0.382980,-0.671167,-0.876203,1.400638,-0.517678,0.202985,-1.662851,-2.334531,-5.438327,0.031052,-1.138753,-0.228270,-2.587904,0.674559,2.889065
13.500000,0.015263,-2.333334,5.735994,1.643833,0.341819,0.906962,-5.693906,-4.653510,-6.976945,0.137587,-0.756449,-0.918656,1.335472,-0.192067,0.274204,-1.747089,-2.501598,-5.330251,-0.015501,-1.190819,-0.080171,-2.728054,1.016182,2.799090
13.600000,-0.001603,-2.425857,5.647095,1.870463,0.463294,0.867785,-5.686249,-4.739257,-7.076474,-0.007552,-0.848501,-0.847996,1.126478,-0.022725,0.324662,-1.835822,-2.617964,-5.259709,-0.098287,-1.191109,0.066536,-3.078199,1.249787,2.647994
13.700000,-0.053667,-2.509095,5.563563,2.086333,0.614244,0.835066,-5.665340,-4.830024,-7.165593,-0.019121,-0.910709,-0.734288,0.784162,-0.044196,0.359750,-1.876032,-2.702913,-5.224744,-0.182382,-1.149298,0.148192,2.685145,1.330019,2.489340
13.800000,-0.141500,-2.572417,5.498174,2.271404,0.778472,0.808780,-5.619740,-4.933323,-7.237797,0.071970,-0.964072,-0.576441,0.281940,-0.285973,0.411140,-1.863879,-2.756003,-5.222542,-0.241072,-1.094285,0.114532,1.987406,1.240291,2.306449
13.900000,-0.254810,-2.605980,5.459827,2.411316,0.935509,0.789858,-5.570053,-5.057571,-7.275373,0.148485,-1.049727,-0.393960,-0.286205,-0.687431,0.497393,-1.920286,-2.765628,-5.241638,-0.328348,-1.021507,-0.055859,1.249287,0.968053,2.052973
14.000000,-0.378678,-2.604177,5.446790,2.489665,1.062389,0.779168,-5.551601,-5.185950,-7.290942,0.221284,-1.143213,-0.301098,-0.651716,-1.145352,0.579910,-2.079955,-2.760436,-5.268086,-0.446226,-0.899131,-0.298603,0.845089,0.564236,1.839389
14.100000,-0.501533,-2.568548,5.449863,2.513457,1.144360,0.774333,-5.536420,-5.304662,-7.314080,0.402653,-1.185734,-0.290255,-0.750845,-1.634947,0.634072,-2.256185,-2.773741,-5.311063,-0.559417,-0.706236,-0.527535,0.858487,0.087423,1.737125
14.200000,-0.617511,-2.505120,5.459781,2.518154,1.176412,0.773911,-5.494165,-5.410768,-7.346719,0.613877,-1.166430,-0.253771,-0.763696,-2.107022,0.672081,-2.458744,-2.787977,-5.344075,-0.704798,-0.418173,-0.584833,1.120184,-0.341752,1.649581
14.300000,-0.725462,-2.420579,5.470161,2.522090,1.158191,0.778874,-5.425388,-5.512542,-7.375077,0.742906,-1.131953,-0.184499,-0.754050,-2.473925,0.706225,-2.635632,-2.802007,-5.359766,-0.799476,-0.167454,-0.472017,1.470685,-0.604703,1.566980
14.400000,-0.827559,-2.324361,5.477075,2.522042,1.096176,0.789067,-5.346236,-5.615946,-7.388080,0.788781,-1.068437,-0.105799,-0.649410,-2.666607,0.748320,-2.854601,-2.784688,-5.360028,-0.834794,0.015491,-0.371157,1.753075,-0.662235,1.541238
14.500000,-0.926233,-2.228143,5.478055,2.525296,1.005332,0.804448,-5.272885,-5.714146,-7.384446,0.788180,-0.952532,-0.012185,-0.438848,-2.680708,0.795598,-3.078013,-2.740278,-5.373750,-0.797377,0.133910,-0.354956,1.984195,-0.588974,1.565247
14.600000,-1.021861,-2.141497,5.471443,2.546630,0.904660,0.825733,-5.207094,-5.796470,-7.371241,0.759962,-0.788441,0.066266,-0.170571,-2.561866,0.837460,-3.271515,-2.687076,-5.406901,-0.691518,0.196430,-0.391047,2.204432,-0.416395,1.607296
14.700000,-1.113227,-2.070194,5.456272,2.595599,0.810675,0.852967,-5.137577,-5.861010,-7.359172,0.732998,-0.638738,0.079348,0.084171,-2.371994,0.873630,-3.433768,-2.655708,-5.437991,-0.566443,0.213721,-0.476591,2.429502,-0.173400,1.639393
14.800000,-1.199799,-2.016059,5.432059,2.675339,0.733810,0.885887,-5.045591,-5.915119,-7.355030,0.739110,-0.572664,0.030852,0.258886,-2.153633,0.918705,-3.589047,-2.672232,-5.439192,-0.492427,0.152255,-0.618931,2.632316,0.112882,1.617558
14.900000,-1.283323,-1.978272,5.398285,2.779258,0.679567,0.924146,-4.949450,-5.967476,-7.357555,0.747463,-0.591568,-0.036356,0.344076,-1.930247,0.972009,-3.728382,-2.725499,-5.425770,-0.472905,-0.004862,-0.766633,2.732684,0.397119,1.540639
15.000000,-1.366405,-1.955216,5.355134,2.896566,0.649621,0.968148,-4.862843,-6.025981,-7.362275,0.739688,-0.676150,-0.079574,0.354408,-1.716919,1.019048,-3.830635,-2.794898,-5.429241,-0.473034,-0.202634,-0.863219,2.700762,0.636310,1.437769
15.100000,-1.451937,-1.944120,5.304468,3.019335,0.642777,1.018077,-4.796539,-6.097287,-7.363013,0.690256,-0.805320,-0.072339,0.263299,-1.520139,1.060287,-3.893187,-2.876660,-5.458109,-0.462617,-0.389508,-0.891114,2.544691,0.823670,1.353643
15.200000,-1.543226,-1.941355,5.249905,3.138437,0.656778,1.072509,-4.749041,-6.182547,-7.356007,0.591395,-0.923414,-0.004769,0.091486,-1.349778,1.101591,-3.922840,-2.966391,-5.505570,-0.423540,-0.529580,-0.851899,2.346074,0.971459,1.340194
15.300000,-1.641415,-1.943761,5.196707,-3.040504,0.688506,1.130791,-4.707605,-6.275576,-7.340394,0.467171,-0.978453,0.105601,-0.107224,-1.199874,1.139675,-3.924225,-3.054712,-5.560938,-0.367893,-0.602634,-0.762377,2.209577,1.099490,1.428278
15.400000,-1.744385,-1.948608,5.150610,-2.958121,0.735439,1.193297,-4.661908,-6.367180,-7.317653,0.367073,-0.943598,0.221598,-0.296872,-1.057281,1.179455,-3.906884,-3.133998,-5.614660,-0.332295,-0.607609,-0.638236,2.204233,1.217993,1.642212
15.500000,-1.848025,-1.953475,5.116039,-2.897501,0.797247,1.259815,-4.612713,-6.449726,-7.288756,0.318635,-0.831215,0.307982,-0.479213,-0.922092,1.218521,-3.886966,-3.202701,-5.658101,-0.349851,-0.571261,-0.496100,2.334975,1.317491,1.978300
15.600000,-1.946748,-1.955003,5.096072,-2.856555,0.874358,1.329822,-4.570961,-6.520755,-7.253071,0.331858,-0.687910,0.349739,-0.675967,-0.808068,1.244890,-3.883142,-3.269572,-5.683217,-0.437493,-0.536944,-0.356417,2.522383,1.387259,2.367495
15.700000,-2.035366,-1.947330,5.091946,-2.836517,0.966007,1.402164,-4.538979,-6.582132,-7.213318,0.420760,-0.558016,0.345563,-0.866190,-0.750165,1.266321,-3.899795,-3.342006,-5.691725,-0.586627,-0.527409,-0.251211,2.630056,1.407370,2.666389
15.800000,-2.111071,-1.923482,5.101398,-2.837923,1.068435,1.476199,-4.507267,-6.636872,-7.173316,0.582532,-0.468897,0.318668,-1.025601,-0.785284,1.287268,-3.918985,-3.411513,-5.702825,-0.772192,-0.553110,-0.200046,2.543196,1.340214,2.748655
15.900000,-2.174227,-1.876831,5.118749,-2.858066,1.173611,1.552401,-4.466032,-6.688583,-7.134935,0.799042,-0.424700,0.293925,-1.116608,-0.952801,1.303416,-3.905811,-3.455130,-5.749285,-0.967916,-0.605020,-0.194540,2.346761,1.119473,2.653328
16.000000,-2.229581,-1.803448,5.136076,-2.892516,1.268974,1.630755,-4.398236,-6.733649,-7.101696,1.028552,-0.387386,0.279900,-1.115343,-1.282795,1.316952,-3.878252,-3.482492,-5.820469,-1.150351,-0.659641,-0.200692,2.260592,0.713813,2.555475
16.100000,-2.284123,-1.704885,5.145528,-2.931173,1.338660,1.711155,-4.308521,-6.774814,-7.072143,1.182798,-0.402981,0.311591,-1.116058,-1.763660,1.315338,-3.936895,-3.590390,-5.831701,-1.251572,-0.774208,-0.176078,2.170311,0.205611,2.546657
16.200000,-2.344817,-1.588627,5.142543,-2.967094,1.366501,1.792956,-4.205782,-6.816413,-7.047981,1.184174,-0.554445,0.296607,-1.188047,-2.326660,1.315185,-4.074702,-3.735576,-5.812887,-1.273738,-0.811182,-0.181349,1.940553,-0.367848,2.574309
16.300000,-2.417084,-1.468985,5.127173,-3.010213,1.338724,1.875265,-4.108738,-6.863149,-7.029573,1.041308,-0.702635,0.129863,-1.253897,-2.815500,1.333824,-4.219355,-3.840917,-5.786640,-1.247428,-0.683778,-0.103232,1.735307,-0.878525,2.666459
16.400000,-2.501257,-1.363256,5.103644,-3.069186,1.251773,1.959728,-4.035915,-6.928051,-7.024460,0.822721,-0.739492,-0.087524,-1.274781,-3.080710,1.362526,-4.342600,-3.921690,-5.751386,-1.137555,-0.477847,0.021742,1.585916,-1.159433,2.804205
16.500000,-2.591750,-1.284742,5.077113,-3.135314,1.121527,2.048192,-3.974907,-7.001064,-7.043620,0.538720,-0.702121,-0.268195,-1.343251,-3.081374,1.396224,-4.451480,-3.970441,-5.722114,-0.987509,-0.199286,0.088012,1.458441,-1.160741,2.888918
16.600000,-2.678778,-1.240589,5.048314,3.079324,0.976630,2.140040,-3.926632,-7.070386,-7.081759,0.183646,-0.657900,-0.336045,-1.475669,-2.863155,1.436231,-4.543018,-3.977447,-5.711004,-0.813690,0.122977,0.079640,1.319461,-0.929849,2.927041
16.700000,-2.751413,-1.230842,5.011625,2.998090,0.844340,2.234811,-3.913133,-7.139127,-7.115319,-0.160586,-0.625456,-0.211139,-1.515004,-2.453726,1.498193,-4.606226,-3.949938,-5.721339,-0.606091,0.403007,0.056907,1.287528,-0.512381,2.976772
16.800000,-2.800191,-1.246940,4.958918,2.903425,0.746385,2.334624,-3.942399,-7.210350,-7.121684,-0.409519,-0.569272,0.034100,-1.445324,-1.886820,1.572065,-4.628319,-3.900130,-5.744635,-0.444304,0.602024,0.046405,1.363615,0.024793,3.035828
16.900000,-2.820268,-1.272601,4.887471,2.814998,0.700956,2.442767,-3.986555,-7.266669,-7.114107,-0.570511,-0.418739,0.259371,-1.460117,-1.287369,1.587052,-4.610606,-3.835772,-5.761907,-0.348618,0.703848,0.010866,1.325698,0.582108,3.029882
17.000000,-2.817059,-1.295068,4.804026,2.737353,0.719027,2.556482,-4.031838,-7.295513,-7.105812,-0.569832,-0.184450,0.394513,-1.448076,-0.741234,1.520086,-4.564833,-3.769086,-5.770657,-0.253904,0.636670,-0.055449,1.262488,1.104216,2.941439
17.100000,-2.802198,-1.313324,4.719968,2.652439,0.798728,2.665647,-4.021248,-7.282337,-7.078253,-0.250319,0.060292,0.456562,-1.077331,-0.219480,1.445527,-4.497999,-3.733563,-5.772448,-0.123432,0.320507,-0.111898,-1.593788,1.510138,-0.294427
17.200000,-2.789524,-1.328129,4.651278,2.582948,0.935412,2.764115,-3.965985,-7.250409,-7.071341,0.179291,0.200548,0.183599,-0.588110,0.119219,1.368660,-4.476983,-3.712926,-5.809384,-0.220146,-0.079831,-0.174063,1.993138,1.241409,2.712551
17.300000,-2.798742,-1.343822,4.609776,2.575663,1.124835,2.852381,-3.921047,-7.225761,-7.080709,0.421789,0.193246,-0.192589,-0.512779,0.013899,1.306545,-4.495944,-3.723040,-5.844042,-0.504464,-0.327556,-0.177975,2.064749,1.131214,2.626753
17.400000,-2.841096,-1.371409,4.585721,2.603161,1.334324,2.931619,-3.856828,-7.194407,-7.083259,0.681079,0.279980,-0.308195,-0.656005,-0.527350,1.309793,-4.552807,-3.761624,-5.862485,-0.750635,-0.497755,-0.168374,1.939552,0.557001,2.615607
17.500000,-2.910543,-1.416358,4.558380,2.610943,1.505415,3.006486,-3.813258,-7.176251,-7.055372,0.893528,0.403458,-0.061122,-0.673943,-1.257577,1.344158,-4.636054,-3.850702,-5.850499,-0.872130,-0.622602,-0.127355,1.878294,-0.160766,2.627870
17.600000,-2.994094,-1.476999,4.517469,2.613504,1.602422,3.083470,-3.760193,-7.179380,-6.968886,0.908925,0.247389,0.338884,-0.712077,-2.021578,1.398935,-4.726630,-3.938451,-5.845098,-0.877856,-0.602456,-0.060323,1.781073,-0.867392,2.644271
17.700000,-3.076839,-1.546980,4.465688,2.633897,1.617440,-3.120047,-3.686911,-7.203672,-6.869998,0.809414,-0.173819,0.379725,-0.897889,-2.787399,1.467864,-4.791184,-4.024094,-5.827980,-0.782790,-0.507543,0.045424,-0.125556,-1.491841,-1.872121
17.800000,-3.145714,-1.617094,4.411314,2.654019,1.543974,-3.039135,-3.663952,-7.257898,-6.821583,0.631178,-0.380622,0.024340,-1.172986,2.852419,1.477480,-4.844103,-4.054262,-5.787296,-0.632313,-0.196801,0.191721,2.450952,-0.936735,1.601987
17.900000,-3.193199,-1.677828,4.362216,2.653775,1.385768,-2.955832,-3.649628,-7.299156,-6.825777,0.249590,-0.254031,-0.290268,-1.495030,2.500176,1.464482,-4.883915,-4.077797,-5.747620,-0.356198,0.078525,0.047630,1.729569,-1.266232,2.017493
18.000000,-3.211188,-1.717410,4.319542,2.618971,1.169000,-2.870626,-3.649424,-7.318409,-6.857437,-0.291552,-0.143064,-0.321674,-1.730672,2.508964,1.453524,-4.891559,-4.064362,-5.725264,0.113680,0.369054,0.043140,1.339329,-1.213529,2.165092
18.100000,-3.196398,-1.721341,4.271061,2.550633,0.932855,-2.785796,-3.697006,-7.330898,-6.881816,-0.836303,-0.113646,-0.130915,-1.822001,2.851303,1.434688,-4.850146,-4.030465,-5.702815,0.600042,0.571048,0.059391,1.263418,-0.826247,2.196329
18.200000,-3.163632,-1.679736,4.200427,2.468441,0.716656,-2.702683,-3.793674,-7.325011,-6.885606,-1.272914,0.067515,0.073250,-1.792701,-2.842469,1.400348,-4.767517,-3.972184,-5.686080,0.983520,0.770927,0.031626,1.366572,-0.269460,2.194156
18.300000,-3.135230,-1.594332,4.103194,2.383276,0.550398,-2.623386,-3.931929,-7.297905,-6.883567,-1.574138,0.309866,0.043309,-1.684990,-2.065404,1.366312,-4.646648,-3.888129,-5.685710,1.307197,0.835778,0.005561,1.463350,0.455689,2.160070
18.400000,-3.125123,-1.473771,3.989091,2.305476,0.455577,-2.549084,-4.111266,-7.271251,-6.884736,-1.756365,0.381576,-0.106645,-1.626598,-1.234858,1.339604,-4.494085,-3.799321,-5.680755,1.522301,0.808331,0.106262,1.558509,1.285416,2.163445
18.500000,-3.133410,-1.327394,3.872882,2.239080,0.444903,-2.477017,-4.307831,-7.253223,-6.879415,-1.805111,0.230803,-0.077975,-1.511879,-0.518176,1.306810,-4.337198,-3.708490,-5.660438,1.522804,0.821705,0.259920,-1.604459,1.142922,-1.098128
18.600000,-3.150649,-1.164586,3.768183,2.175616,0.515142,-2.405730,-4.472665,-7.235749,-6.858620,-1.486210,0.078899,0.322036,-1.111201,-0.040642,1.264127,-4.206823,-3.627080,-5.735097,1.301529,0.770174,0.175744,2.366007,1.211559,2.905205
18.700000,-3.168007,-0.997528,3.693718,2.144407,0.651841,-2.337304,-4.581479,-7.231200,-6.802194,-0.940745,-0.102763,0.633194,-0.636464,0.190034,1.249594,-4.080987,-3.557946,-5.769803,1.098928,0.474247,0.343817,-3.096055,1.296366,-2.840289
18.800000,-3.178368,-0.845576,3.664878,2.183497,0.832743,-2.271066,-4.653237,-7.266611,-6.714239,-0.629613,-0.424694,0.541065,-0.542949,0.148854,1.274831,-3.981338,-3.491886,-5.753944,0.660370,0.353957,0.495404,-2.807170,1.234041,-2.572394
18.900000,-3.174514,-0.730848,3.681589,2.261990,1.024409,-2.204085,-4.699784,-7.329188,-6.672169,-0.346638,-0.682533,0.064374,-0.766156,-0.174358,1.306425,-3.917677,-3.438656,-5.704631,0.119613,0.268384,0.603643,-2.927265,0.939469,-2.414576
19.000000,-3.154616,-0.672327,3.735454,2.323855,1.192975,-2.135214,-4.713313,-7.387861,-6.704692,0.164868,-0.634878,-0.488883,-0.941028,-0.657279,1.332191,-3.864973,-3.423022,-5.626758,-0.290374,0.124788,0.863681,-3.007230,0.507205,-2.324971
19.100000,-3.122132,-0.681793,3.813542,2.357968,1.317209,-2.062888,-4.680977,-7.413437,-6.781304,0.746418,-0.269211,-0.802705,-0.960738,-1.162577,1.332278,-3.815810,-3.416905,-5.516154,-0.524792,0.196540,1.212476,-2.855301,0.038631,-2.216848
19.200000,-3.077462,-0.757574,3.900938,2.385588,1.389931,-1.986623,-4.591841,-7.415233,-6.842270,1.231993,0.100104,-0.743172,-1.014444,-1.586289,1.294320,-3.781270,-3.368169,-5.397715,-0.635834,0.495238,1.396612,-2.761999,-0.418932,-2.098392
19.300000,-3.018530,-0.882465,3.987769,2.419971,1.413809,-1.910518,-4.398011,-7.421643,-6.880096,1.556505,0.192142,-0.545067,-1.215438,-1.927334,1.288220,-3.756498,-3.257596,-5.306717,-0.579042,0.762497,1.329781,-2.871863,-0.814586,-2.015560
19.400000,-2.948071,-1.029284,4.071496,2.446622,1.394868,-1.838969,-4.170486,-7.420567,-6.919485,1.607108,0.127079,-0.451570,-1.433165,-2.207757,1.300373,-3.740968,-3.109818,-5.261535,-0.423903,0.815884,1.054968,-3.006383,-1.089018,-2.013723
19.500000,-2.871667,-1.171212,4.154059,2.449293,1.340825,-1.772850,-3.979836,-7.414453,-6.960939,1.444997,0.102075,-0.422931,-1.542324,-2.402688,1.292435,-3.729005,-2.966567,-5.252669,-0.314945,0.693965,0.710968,-2.995389,-1.246591,-2.092798
19.600000,-2.795495,-1.287205,4.237544,2.435861,1.262025,-1.711387,-3.836656,-7.404598,-7.000794,1.164945,0.168823,-0.392686,-1.552253,-2.506234,1.273898,-3.717677,-2.845715,-5.266925,-0.277634,0.480627,0.386366,-2.899810,-1.319691,-2.172264
19.700000,-2.728888,-1.362953,4.320699,2.418720,1.168407,-1.653741,-3.734783,-7.383205,-7.037579,0.818983,0.306783,-0.369427,-1.481414,-2.520941,1.264453,-3.710014,-2.755350,-5.296581,-0.280844,0.221019,0.103708,-2.767956,-1.318453,-2.213094
19.800000,-2.681359,-1.393269,4.399429,2.405066,1.068933,-1.598245,-3.670915,-7.345539,-7.075241,0.451687,0.456473,-0.402445,-1.344775,-2.462658,1.278664,-3.705529,-2.698175,-5.340255,-0.272620,-0.039604,-0.147941,-2.602545,-1.253221,-2.215356
19.900000,-2.659224,-1.381798,4.469617,2.403175,0.971688,-1.542182,-3.643087,-7.297532,-7.122860,0.090394,0.523895,-0.530141,-1.153300,-2.323693,1.318217,-3.693396,-2.668085,-5.398673,-0.201702,-0.259642,-0.373494,-2.399995,-1.114782,-2.188655
20.000000,-2.665073,-1.336018,4.527895,2.417186,0.883870,-1.483360,-3.649685,-7.257337,-7.189485,-0.217017,0.413510,-0.735524,-0.893200,-2.093465,1.359849,-3.654919,-2.646485,-5.470841,-0.042414,-0.381603,-0.568814,-2.131988,-0.886943,-2.170446
20.100000,-2.697962,-1.264899,4.572621,2.453162,0.814548,-1.420721,-3.683556,-7.243049,-7.274441,-0.404327,0.114622,-0.910034,-0.629246,-1.812276,1.368211,-3.582104,-2.609933,-5.550574,0.180580,-0.370221,-0.686545,-1.872820,-0.596200,-2.203562
20.200000,-2.753690,-1.177588,4.605445,2.519134,0.772944,-1.354598,-3.718824,-7.247212,-7.364425,-0.501450,-0.246271,-0.938276,-0.473181,-1.520215,1.339221,-3.488594,-2.560228,-5.624106,0.403808,-0.287612,-0.686706,-1.753686,-0.278438,-2.296385
20.300000,-2.824724,-1.080050,4.629534,2.608279,0.763996,-1.288224,-3.742630,-7.258993,-7.445088,-0.575305,-0.552681,-0.840996,-0.401826,-1.238803,1.292941,-3.386361,-2.516233,-5.679420,0.599046,-0.202887,-0.602094,-1.749508,0.036596,-2.426992
20.400000,-2.903201,-0.975445,4.650141,2.706708,0.789817,-1.226266,-3.770873,-7.290099,-7.510607,-0.635767,-0.776877,-0.688599,-0.333097,-0.990389,1.235018,-3.282595,-2.486897,-5.713830,0.745811,-0.134423,-0.465542,-1.773268,0.301972,-2.570200
20.500000,-2.984236,-0.866872,4.675732,2.812381,0.850472,-1.171736,-3.811767,-7.347268,-7.563274,-0.679998,-0.912399,-0.559811,-0.287506,-0.827518,1.180087,-3.180055,-2.473024,-5.732327,0.840342,-0.072498,-0.309957,-1.820421,0.458515,-2.693368
20.600000,-3.063885,-0.757778,4.714713,2.925709,0.939275,-1.125197,-3.867347,-7.431247,-7.612459,-0.712946,-0.974181,-0.545677,-0.328697,-0.795551,1.149094,-3.066849,-2.470745,-5.738115,0.921781,0.002902,-0.161139,-1.922816,0.480668,-2.771414
20.700000,-3.137468,-0.653073,4.773252,3.038595,1.041585,-1.084594,-3.930954,-7.526996,-7.671484,-0.702047,-0.941762,-0.673755,-0.476472,-0.900533,1.142494,-2.932125,-2.476134,-5.730635,0.988967,0.084746,-0.034834,-2.089831,0.384250,-2.812804
20.800000,-3.200860,-0.559033,4.853446,-3.141414,1.140626,-1.046946,-3.986880,-7.608631,-7.751012,-0.595220,-0.789850,-0.876583,-0.692810,-1.111903,1.149041,-2.788332,-2.481598,-5.715947,1.023739,0.156711,0.060707,-2.292169,0.205284,-2.827967
20.900000,-3.250537,-0.479315,4.952103,-3.060387,1.221820,-1.010655,-4.027465,-7.671440,-7.850012,-0.425028,-0.577951,-1.063395,-0.811223,-1.343698,1.154499,-2.652685,-2.478068,-5.706736,1.051863,0.225372,0.120284,-2.388564,0.007523,-2.832376
21.000000,-3.286417,-0.415347,5.064255,-3.005723,1.276719,-0.974981,-4.052480,-7.716952,-7.962686,-0.252520,-0.355447,-1.201485,-0.747080,-1.510896,1.150801,-2.527759,-2.460879,-5.709688,1.091157,0.299855,0.127093,-2.312231,-0.136959,-2.844148
21.100000,-3.314132,-0.367645,5.186104,-2.952056,1.308054,-0.939972,-4.067261,-7.742373,-8.086222,-0.138919,-0.172059,-1.285773,-0.751723,-1.589136,1.132250,-2.407289,-2.431795,-5.724780,1.131132,0.337667,0.082198,-2.317313,-0.199401,-2.870716
21.200000,-3.339017,-0.331895,5.314093,-2.885844,1.325142,-0.906917,-4.078326,-7.753218,-8.217720,-0.104635,-0.101757,-1.327345,-0.981577,-1.568525,1.098594,-2.283965,-2.401275,-5.740342,1.170882,0.313239,0.033202,-2.550949,-0.164713,-2.907400
21.300000,-3.362179,-0.299600,5.444465,-2.834403,1.337681,-0.876949,-4.094971,-7.759850,-8.354630,-0.154235,-0.136812,-1.339536,-1.306963,-1.449362,1.055150,-2.154825,-2.375005,-5.751214,1.205847,0.263337,0.002397,-2.880646,-0.034449,-2.946421
21.400000,-3.383371,-0.265434,5.575003,-2.814687,1.357610,-0.850674,-4.124244,-7.774317,-8.489616,-0.242518,-0.238009,-1.297715,-1.639557,-1.262728,1.009921,-2.024426,-2.353203,-5.756146,1.221309,0.227136,0.027545,3.069311,0.154304,-2.981010
21.500000,-3.401505,-0.230970,5.705292,-2.827331,1.395042,-0.828550,-4.162000,-7.802086,-8.616297,-0.308928,-0.422360,-1.196229,-1.803248,-1.033569,0.975306,-1.899187,-2.336521,-5.744038,1.205361,0.200087,0.166947,2.917038,0.381477,-3.002832
21.600000,-3.413242,-0.204463,5.836206,-2.872300,1.455055,-0.810216,-4.197448,-7.849281,-8.729385,-0.288783,-0.680919,-1.046780,-1.632411,-0.811539,0.958670,-1.789913,-2.323088,-5.703415,1.103432,0.169199,0.429218,3.106447,0.598499,-3.009665
21.700000,-3.414920,-0.199234,5.968702,-2.914192,1.541715,-0.794356,-4.221493,-7.930308,-8.828346,-0.134553,-0.897346,-0.970426,-1.386098,-0.687422,0.963953,-1.699358,-2.305019,-5.628397,0.889371,0.201242,0.724617,-2.911945,0.705166,-3.011032
21.800000,-3.400213,-0.227877,6.100090,-2.921531,1.651004,-0.779405,-4.219696,-8.031756,-8.926105,0.139561,-0.987860,-1.028252,-1.253309,-0.722022,0.988959,-1.622467,-2.276922,-5.523326,0.639739,0.308924,0.981763,-2.774077,0.652454,-3.003861
21.900000,-3.361760,-0.295717,6.221489,-2.912801,1.765935,-0.763606,-4.169028,-8.122338,-9.039194,0.514892,-0.842321,-1.196289,-1.065437,-0.935168,1.025629,-1.549692,-2.218114,-5.402653,0.459010,0.469803,1.176371,-2.592026,0.427853,-2.981443
22.000000,-3.298710,-0.400302,6.322335,-2.893970,1.866763,-0.745185,-4.095128,-8.199127,-9.148154,0.877135,-0.385404,-1.271005,-0.837800,-1.282098,1.041348,-1.488204,-2.044854,-5.351177,0.387895,0.696237,1.217626,-2.421932,0.041217,-2.885602
22.100000,-3.218343,-0.533587,6.397248,-2.849359,1.935217,-0.724187,-4.071427,-8.332118,-9.188359,1.071146,0.125250,-1.034160,-0.660158,-1.635783,1.024350,-1.441670,-1.752323,-5.365867,0.367649,0.942655,1.073980,-2.437597,-0.407050,-2.672522
22.200000,-3.132486,-0.684561,6.450377,-2.781541,1.957557,-0.702324,-4.032497,-8.428990,-9.189958,1.100364,0.563377,-0.637503,-0.480975,-1.963457,1.011822,-1.414439,-1.451128,-5.345096,0.317545,1.120588,0.801850,-2.593023,-0.786417,-2.353200
22.300000,-3.053741,-0.842101,6.494766,-2.689486,1.932023,-0.680320,-3.966282,-8.469669,-9.168159,1.006146,0.794822,-0.284736,-0.400613,-2.221718,1.012514,-1.409025,-1.202863,-5.286704,0.243016,1.144161,0.472584,-2.904037,-1.053263,-1.994530
22.400000,-2.993371,-0.993187,6.545668,-2.578658,1.864804,-0.658572,-3.873859,-8.424381,-9.156708,0.830994,0.854446,-0.165529,-0.390559,-2.375765,1.012946,-1.417390,-1.010336,-5.239661,0.151469,0.968310,0.119413,3.092667,-1.172969,-1.731677
22.500000,-2.957877,-1.118668,6.613735,-2.469648,1.767092,-0.638203,-3.794270,-8.333765,-9.172801,0.563801,0.827228,-0.339059,-0.362775,-2.375417,0.999235,-1.428893,-0.871117,-5.233394,0.017866,0.634601,-0.209333,3.007735,-1.130304,-1.639682
22.600000,-2.949361,-1.197842,6.700781,-2.358933,1.658535,-0.619517,-3.750144,-8.253410,-9.223729,0.233602,0.677808,-0.708922,-0.422280,-2.226278,0.983613,-1.441262,-0.775336,-5.266549,-0.108527,0.258014,-0.545223,2.902114,-0.956470,-1.604826
22.700000,-2.964427,-1.215710,6.799622,-2.245486,1.558934,-0.602622,-3.765119,-8.219305,-9.309717,-0.246803,0.407202,-1.064241,-0.581849,-1.961693,0.971896,-1.462877,-0.704919,-5.333365,-0.270180,-0.028368,-0.923442,2.728243,-0.684345,-1.556812
22.800000,-2.990887,-1.166373,6.901357,-2.147308,1.481047,-0.587359,-3.832974,-8.210082,-9.417178,-0.864764,0.168862,-1.201303,-0.815015,-1.649566,0.979046,-1.473627,-0.639708,-5.448835,-0.531999,-0.111727,-1.282386,2.536096,-0.358069,-1.411560
22.900000,-3.016982,-1.054081,7.002313,-2.063588,1.433403,-0.572294,-3.932524,-8.175608,-9.530529,-1.442953,0.168171,-1.162779,-1.212636,-1.352798,1.024288,-1.426069,-0.597379,-5.655801,-0.944404,-0.098087,-1.447257,2.303016,-0.046448,-1.089953
23.000000,-3.032405,-0.890774,7.104145,-2.002671,1.418301,-0.556377,-4.082289,-8.136725,-9.645172,-1.820898,0.302416,-1.155491,-1.575822,-1.060350,1.084808,-1.375913,-0.637414,-5.918947,-1.412062,-0.212226,-1.373231,2.191209,0.193967,-0.692559
23.100000,-3.031328,-0.692977,7.211454,-1.983797,1.433161,-0.538451,-4.295566,-8.120316,-9.757342,-2.036292,0.295530,-1.164554,-1.697003,-0.781201,1.106057,-1.414310,-0.733858,-6.135960,-1.683582,-0.374953,-1.251088,2.296235,0.371820,-0.426818
23.200000,-3.022562,-0.478121,7.328069,-1.985237,1.477149,-0.516974,-4.526387,-8.110281,-9.865691,-2.128394,0.140518,-1.102296,-1.716447,-0.572372,1.104861,-1.523671,-0.830409,-6.310621,-1.835580,-0.427613,-1.081418,2.446454,0.512797,-0.260911
23.300000,-3.013003,-0.264896,7.457011,-1.983383,1.546607,-0.492596,-4.746695,-8.108072,-9.967668,-2.073390,-0.104003,-0.988477,-1.710456,-0.462132,1.106231,-1.677649,-0.914297,-6.442513,-1.872137,-0.382562,-0.821483,2.562958,0.588216,-0.162084
23.400000,-2.999526,-0.071984,7.599039,-1.982303,1.632095,-0.466433,-4.949898,-8.130886,-10.057842,-1.875465,-0.382975,-0.853217,-1.639685,-0.448872,1.113823,-1.860907,-0.981261,-6.530872,-1.788397,-0.279276,-0.495186,2.687395,0.594160,-0.101883
23.500000,-2.981362,0.083926,7.751025,-1.974146,1.724802,-0.438381,-5.124827,-8.189397,-10.136703,-1.511309,-0.642683,-0.796113,-1.584434,-0.519481,1.124943,-2.048261,-1.028538,-6.576071,-1.588560,-0.140018,-0.115940,2.746388,0.524405,-0.081220
23.600000,-2.956391,0.188510,7.906553,-1.955389,1.815598,-0.409152,-5.259075,-8.279597,-10.213786,-1.008003,-0.865528,-0.844690,-1.549021,-0.646920,1.136151,-2.225154,-1.057968,-6.580323,-1.348272,0.023954,0.302920,2.761249,0.397897,-0.073502
23.700000,-2.922309,0.232583,8.057365,-1.935968,1.894831,-0.379367,-5.334102,-8.385325,-10.300957,-0.426969,-0.996335,-0.946209,-1.494753,-0.801055,1.143639,-2.385299,-1.067505,-6.545087,-1.137128,0.203824,0.715370,2.790348,0.245545,-0.074367
23.800000,-2.881285,0.213774,8.197089,-1.911663,1.957980,-0.349052,-5.348018,-8.495953,-10.401669,0.143065,-1.044272,-1.066058,-1.434553,-0.936599,1.142712,-2.531570,-1.060880,-6.473550,-1.013865,0.368767,1.092907,2.829325,0.110278,-0.081128
23.900000,-2.834854,0.137575,8.322125,-1.882875,2.004178,-0.318941,-5.311275,-8.606860,-10.511918,0.644840,-0.983775,-1.186407,-1.277530,-1.009451,1.142031,-2.666968,-1.054231,-6.367876,-0.968387,0.463037,1.414970,2.968604,0.030271,-0.082552
24.000000,-2.786051,0.014803,8.433220,-1.847099,2.036860,-0.289099,-5.233145,-8.697098,-10.636880,1.027385,-0.807353,-1.318708,-1.123126,-1.037693,1.139391,-2.796559,-1.058137,-6.231648,-0.958559,0.441993,1.660945,3.109487,-0.005085,-0.073339
24.100000,-2.740132,-0.143584,8.534544,-1.785848,2.063992,-0.258651,-5.106901,-8.795663,-10.761935,1.323770,-0.714841,-1.328163,-1.242371,-1.089872,1.163783,-2.922343,-1.034661,-6.072889,-0.952489,0.421162,1.793978,2.975750,-0.054859,-0.046805
24.200000,-2.700345,-0.325451,8.629498,-1.716758,2.087123,-0.226965,-4.938117,-8.891750,-10.884610,1.469940,-0.803961,-1.196669,-1.556107,-1.197978,1.220387,-3.053179,-0.954448,-5.919152,-0.968031,0.495775,1.760668,2.662400,-0.145374,-0.029318
24.300000,-2.666066,-0.515677,8.720273,-1.679696,2.101369,-0.193080,-4.762307,-8.983536,-11.000064,1.431085,-0.893954,-1.064292,-1.818749,-1.338260,1.283523,-3.193802,-0.839788,-5.803131,-0.991008,0.575779,1.552259,2.449170,-0.277623,-0.067654
24.400000,-2.632910,-0.699675,8.808003,-1.676248,2.104363,-0.155907,-4.618337,-9.087808,-11.099706,1.266733,-0.878639,-1.010118,-2.003636,-1.494206,1.328227,-3.334426,-0.711701,-5.727942,-0.994375,0.602706,1.242535,2.374004,-0.438437,-0.183938
24.500000,-2.596572,-0.865880,8.892508,-1.693965,2.093593,-0.115600,-4.508375,-9.184920,-11.193708,1.059555,-0.728208,-1.005073,-2.120306,-1.658115,1.350968,-3.457880,-0.583994,-5.677943,-0.980145,0.557483,0.902735,2.410173,-0.591560,-0.337878
24.600000,-2.556577,-1.005619,8.974343,-1.729890,2.065893,-0.073221,-4.420252,-9.251242,-11.289303,0.865878,-0.440665,-0.980170,-2.125775,-1.809641,1.356724,-3.565315,-0.476371,-5.645512,-0.953993,0.429171,0.568835,2.551302,-0.715067,-0.465704
