t,truth_x,truth_y,truth_z,truth_roll,truth_pitch,truth_yaw,ekf_x,ekf_y,ekf_z,ekf_vx,ekf_vy,ekf_vz,ekf_roll,ekf_pitch,ekf_yaw,esekf_x,esekf_y,esekf_z,esekf_vx,esekf_vy,esekf_vz,esekf_roll,esekf_pitch,esekf_yaw
0.000000,0.000000,0.000000,0.000000,0.000000,0.000000,0.000000,0.001503,0.094752,0.006383,-0.002265,1.069131,0.180427,-0.119579,0.081533,-0.054094,0.001822,0.103176,0.005843,-0.003275,1.048282,0.181728,-0.120407,0.080727,-0.054241
0.100000,-0.007768,0.127825,0.031541,0.101547,0.066288,-0.030603,0.006506,0.221915,0.024292,0.023920,1.255440,0.308810,-0.250536,0.135381,-0.110690,0.008458,0.236297,0.020411,0.009797,1.210330,0.328299,-0.249401,0.133769,-0.107190
0.200000,-0.011654,0.249424,0.101078,0.190778,0.140925,-0.066931,0.014378,0.358520,0.049889,0.053011,1.378480,0.356747,-0.401478,0.135196,-0.178609,0.017504,0.377776,0.039684,0.011167,1.310944,0.423740,-0.395919,0.131531,-0.168038
0.300000,-0.008156,0.360744,0.201223,0.262235,0.217435,-0.111333,0.024761,0.504974,0.078755,0.075132,1.499818,0.347115,-0.513458,0.101647,-0.234931,0.026664,0.527554,0.062636,-0.002754,1.411941,0.473871,-0.502715,0.096819,-0.215343
0.400000,0.005033,0.460374,0.325618,0.317213,0.289765,-0.163107,0.035833,0.661843,0.109743,0.076034,1.598087,0.333719,-0.536051,0.074822,-0.272421,0.034003,0.685925,0.093471,-0.035216,1.498877,0.483252,-0.521666,0.072135,-0.244254
0.500000,0.027595,0.548631,0.466530,0.362701,0.357205,-0.220233,0.045281,0.825042,0.146456,0.059289,1.636136,0.379657,-0.446015,0.099573,-0.296786,0.038853,0.848799,0.137324,-0.076943,1.546718,0.475667,-0.430709,0.102318,-0.262346
0.600000,0.057694,0.627024,0.615169,0.411128,0.423709,-0.280801,0.052829,0.984642,0.196737,0.054688,1.568719,0.522771,-0.251391,0.197835,-0.326484,0.050517,1.005394,0.199893,-0.108359,1.529470,0.476376,-0.243798,0.223916,-0.293801
0.700000,0.093480,0.696521,0.766394,0.476062,0.495842,-0.344149,0.057434,1.126766,0.261182,0.083120,1.379224,0.683866,0.016051,0.355034,-0.369163,0.081199,1.138282,0.277486,-0.124597,1.454625,0.456614,-0.003766,0.442868,-0.358362
0.800000,0.133153,0.758577,0.914678,0.568804,0.583420,-0.412253,0.063795,1.243580,0.335447,0.152477,1.155847,0.779286,0.307526,0.521773,-0.428572,0.127196,1.242625,0.350006,-0.144786,1.381056,0.381066,0.236726,0.678893,-0.462334
0.900000,0.176517,0.816641,1.053807,0.695159,0.693074,-0.487776,0.078320,1.339440,0.418715,0.237691,1.031354,0.796754,0.546208,0.644871,-0.519181,0.167573,1.326171,0.408831,-0.166694,1.386705,0.252434,0.439828,0.827599,-0.582568
1.000000,0.226465,0.874852,1.181764,0.852506,0.824194,-0.572904,0.111034,1.432541,0.510668,0.360883,1.101461,0.756467,0.664063,0.695532,-0.635809,0.178618,1.398951,0.499737,-0.172259,1.514233,0.163992,0.588515,0.890354,-0.640663
1.100000,0.290256,0.937085,1.298715,1.030785,0.970671,-0.670185,0.159155,1.548680,0.586752,0.490161,1.366765,0.566973,0.613853,0.619517,-0.746280,0.150501,1.484976,0.634861,-0.203933,1.768873,0.143342,0.603914,0.841662,-0.627321
1.200000,0.380376,1.004638,1.406657,1.213774,1.119710,-0.780145,0.203820,1.701985,0.600972,0.553495,1.687960,0.025232,0.358206,0.387871,-0.818373,0.133143,1.636667,0.673947,-0.172248,2.072464,-0.087115,0.385046,0.600145,-0.642580
1.300000,0.510975,1.069945,1.508232,1.380572,1.254816,-0.899887,0.208763,1.849449,0.537346,0.465182,1.570335,-0.871663,-0.061521,0.039495,-0.821726,0.124398,1.830541,0.397580,0.073037,2.091817,-0.866585,0.009271,0.057354,-0.734424
1.400000,0.687147,1.114587,1.601495,1.508943,1.360745,-1.024904,0.241645,1.901520,0.511153,0.286899,0.732583,-1.449576,-0.560968,-0.306005,-0.797445,0.276361,1.882222,0.144109,0.215828,1.635437,-1.349096,-0.672460,-0.294227,-0.830004
1.500000,0.896656,1.120845,1.681985,1.580030,1.425293,-1.150673,0.218587,1.862461,0.484423,-0.067110,-0.325259,-1.437683,-1.144163,-0.667743,-0.746558,0.490112,1.878647,0.213055,-0.412994,1.168075,-1.050760,-1.637889,0.351780,-1.123480
1.600000,1.117801,1.086270,1.748278,1.583769,1.442696,-1.274871,0.072909,1.766639,0.462040,-0.489176,-0.998349,-0.995963,-1.728124,-1.063974,-0.636699,0.688029,1.965074,0.944270,-0.512025,1.297719,-0.168535,-1.993606,0.519986,-1.488884
1.700000,1.328656,1.021134,1.802786,1.519622,1.412312,-1.396916,-0.094462,1.643096,0.407037,-0.663105,-1.197449,-0.631611,-2.239985,-1.465823,-0.517041,1.193952,2.076950,1.167947,0.077314,1.092512,-0.144211,-2.578184,0.223406,-2.101681
1.800000,1.509195,0.938489,1.851122,1.395205,1.336708,-1.515152,-0.236044,1.520369,0.357859,-0.539907,-1.193504,-0.458555,-2.555972,-1.730281,-0.422409,1.483280,2.240303,1.527367,0.401118,1.010178,-0.116764,-2.645208,0.129768,-2.310370
1.900000,1.646803,0.848885,1.899641,1.227095,1.225956,-1.628336,-0.293903,1.393432,0.316606,-0.138607,-1.215536,-0.282139,-2.626617,-1.825255,-0.381718,1.551574,2.329774,1.456496,0.374457,0.758780,-0.689671,-2.774594,-0.042228,-2.479425
2.000000,1.736208,0.756218,1.955317,1.038456,1.096678,-1.737773,-0.270519,1.271035,0.293629,0.494494,-1.161500,-0.147139,-2.441264,-1.736955,-0.368738,1.502805,2.446214,1.481232,0.470520,0.727453,-1.064760,-2.517634,0.126083,-2.415285
2.100000,1.778130,0.658823,2.030050,0.855579,0.967836,-1.845365,-0.192820,1.193799,0.262125,1.181183,-0.727438,-0.320720,-2.052909,-1.473804,-0.363096,1.491655,2.514550,1.391829,0.763105,0.607852,-1.448883,-2.067162,0.375663,-2.343470
2.200000,1.781125,0.556452,2.137307,0.704283,0.857933,-1.951680,-0.080308,1.196375,0.199673,1.383949,0.191488,-0.660667,-1.547402,-1.126397,-0.385517,1.952309,2.556180,1.436333,1.468035,0.179997,-1.340300,-1.816623,0.850750,-2.687932
2.300000,1.756528,0.452333,2.285075,0.603246,0.780513,-2.056408,0.075840,1.250319,0.177737,1.053006,1.126987,-0.440974,-0.987554,-0.821216,-0.484600,2.413154,2.466148,1.372792,1.487067,-0.576029,-1.400210,-2.035568,0.892620,2.804911
2.400000,1.714084,0.351994,2.471520,0.561558,0.744391,-2.160551,0.216127,1.331757,0.236952,0.660132,1.614008,0.259050,-0.497845,-0.601132,-0.590522,2.940622,2.564150,1.784511,1.958201,-0.667771,-0.545704,3.109131,0.934021,1.413483
2.500000,1.658140,0.260735,2.684255,0.579288,0.752257,-2.266288,0.286454,1.435751,0.324243,0.318819,1.674898,0.783095,-0.159446,-0.411555,-0.688226,3.129743,2.543303,1.832777,1.762714,-0.736123,-0.332488,-2.812427,0.965126,1.552677
2.600000,1.587797,0.182309,2.906714,0.646545,0.796217,-2.374897,0.334066,1.575764,0.456796,0.114882,1.653915,1.025679,0.040508,-0.348595,-0.770807,3.203364,2.441959,1.786779,1.547648,-0.752355,-0.188828,-2.561080,1.001077,1.644716
2.700000,1.507189,0.119700,3.120966,0.746881,0.862476,-2.487540,0.331019,1.755592,0.561169,0.055477,1.709025,0.852109,0.043265,-0.412364,-0.814644,3.167995,2.229799,1.450594,1.420918,-0.736264,-0.522919,-2.091514,0.955118,2.017827
2.800000,1.428330,0.071073,3.312815,0.860094,0.933233,-2.604740,0.318391,1.943026,0.600371,0.196471,1.691095,0.282838,-0.140731,-0.631257,-0.814524,3.163987,2.061150,1.100339,1.508262,-0.523485,-0.917416,-2.006861,0.621237,2.288811
2.900000,1.362946,0.026881,3.477965,0.963843,0.986218,-2.724642,0.345399,2.091507,0.571252,0.517511,1.293147,-0.413751,-0.447221,-0.951510,-0.796491,3.221222,2.017432,0.859999,1.602091,-0.060296,-1.005715,-2.294126,0.229358,2.407718
3.000000,1.318268,-0.027417,3.618557,1.040581,1.006169,-2.845671,0.409413,2.167495,0.506996,0.801829,0.512137,-0.787711,-0.804590,-1.271225,-0.756904,3.368715,2.076136,0.813551,1.645642,0.310942,-0.594379,-2.707169,-0.101847,2.376867
3.100000,1.292514,-0.103962,3.739589,1.080806,0.989446,-2.966319,0.473049,2.171166,0.437574,0.881507,-0.278951,-0.768917,-1.151498,-1.518546,-0.679064,3.541092,2.111280,0.840661,1.684394,0.388222,-0.137882,-3.050057,-0.379368,2.357419
3.200000,1.276526,-0.205673,3.845751,1.081581,0.939123,-3.083314,0.523605,2.115446,0.372443,0.784511,-0.853963,-0.607480,-1.436100,-1.660844,-0.580296,3.713283,2.096875,0.906696,1.688801,0.283988,0.200696,2.987838,-0.536631,2.374218
3.300000,1.263584,-0.329780,3.938476,1.047362,0.865727,3.088484,0.574845,2.014492,0.321388,0.650537,-1.185984,-0.478449,-1.603692,-1.701169,-0.502701,3.879519,2.066880,0.987197,1.642830,0.152419,0.406191,2.852082,-0.579253,2.392698
3.400000,1.250044,-0.469703,4.017913,0.988358,0.782596,2.982527,0.635389,1.884789,0.278366,0.589732,-1.319260,-0.430937,-1.616458,-1.648214,-0.462751,4.034249,2.049670,1.068458,1.568150,0.086225,0.512329,2.853011,-0.529286,2.405768
3.500000,1.233127,-0.616387,4.084328,0.918716,0.699861,2.881167,0.703974,1.746101,0.226333,0.654162,-1.277653,-0.474692,-1.474171,-1.512510,-0.438339,4.180247,2.066712,1.139883,1.491539,0.118321,0.534353,3.004647,-0.405401,2.425803
3.600000,1.211125,-0.762479,4.139062,0.856070,0.627167,2.782732,0.772867,1.627285,0.150499,0.779393,-1.017571,-0.615570,-1.224012,-1.326255,-0.413311,4.320122,2.111282,1.194024,1.409444,0.212932,0.438807,-3.001445,-0.225985,2.443148
3.700000,1.182377,-0.900295,4.188195,0.816345,0.572158,2.686908,0.839641,1.548095,0.054629,0.820133,-0.561652,-0.775625,-0.916362,-1.117096,-0.396260,4.450240,2.156278,1.230556,1.321706,0.277438,0.239017,-2.646541,0.015445,2.437527
3.800000,1.145969,-1.023077,4.239877,0.809850,0.538208,2.594506,0.902176,1.513006,-0.041120,0.710910,-0.026708,-0.839234,-0.600953,-0.909979,-0.386159,4.571451,2.178328,1.247244,1.241614,0.223606,0.008454,-2.294514,0.295233,2.424927
3.900000,1.102872,-1.127375,4.300312,0.841010,0.527572,2.505067,0.952677,1.521908,-0.120316,0.497739,0.447597,-0.747780,-0.345411,-0.737285,-0.368516,4.687753,2.169448,1.246211,1.164370,0.052952,-0.166062,-2.029206,0.538431,2.431632
4.000000,1.055333,-1.209316,4.375439,0.906552,0.539406,2.419068,0.985966,1.571806,-0.178981,0.284956,0.776249,-0.569793,-0.189923,-0.620464,-0.354363,4.799359,2.133383,1.236142,1.094328,-0.145358,-0.257474,-1.881115,0.699847,2.438594
4.100000,1.006501,-1.265757,4.467167,0.996615,0.568278,2.337362,1.004409,1.655727,-0.222720,0.138545,0.977329,-0.417924,-0.142452,-0.567868,-0.353633,4.905667,2.082159,1.219163,1.045766,-0.309430,-0.304079,-1.848160,0.773346,2.430886
4.200000,0.960011,-1.297890,4.572145,1.099079,0.607610,2.257761,1.013052,1.764152,-0.260513,0.064561,1.097930,-0.344191,-0.189434,-0.599282,-0.351502,5.008511,2.028232,1.189758,1.015530,-0.426404,-0.342837,-1.908684,0.750462,2.424206
4.300000,0.919428,-1.307382,4.686466,1.201557,0.649091,2.178113,1.018936,1.883416,-0.298612,0.053278,1.149976,-0.357958,-0.296902,-0.705315,-0.342681,5.108175,1.979217,1.154403,1.002241,-0.490654,-0.378421,-2.028887,0.656586,2.421421
4.400000,0.887944,-1.296497,4.806395,1.293896,0.682539,2.098877,1.027618,2.002986,-0.341669,0.085629,1.160629,-0.431265,-0.409550,-0.829478,-0.317147,5.208788,1.935500,1.126379,1.011361,-0.508367,-0.412056,-2.155550,0.556162,2.428494
4.500000,0.867587,-1.271263,4.929216,1.372696,0.701996,2.020924,1.040499,2.119470,-0.390724,0.114458,1.157967,-0.502169,-0.470254,-0.916460,-0.269186,5.313318,1.894879,1.102271,1.021842,-0.498868,-0.442231,-2.228285,0.499130,2.454762
4.600000,0.859279,-1.238057,5.053245,1.441654,0.709428,1.945873,1.051736,2.234275,-0.443253,0.079647,1.162181,-0.538553,-0.461989,-0.934804,-0.203396,5.419273,1.856102,1.068822,1.032322,-0.486839,-0.465453,-2.224241,0.507100,2.506468
4.700000,0.863748,-1.201233,5.177351,1.507081,0.711215,1.876781,1.050170,2.350900,-0.494994,-0.038669,1.174954,-0.528209,-0.366846,-0.860185,-0.140218,5.526564,1.814785,1.018066,1.055857,-0.472202,-0.470787,-2.121518,0.595553,2.571596
4.800000,0.880567,-1.164361,5.301152,1.577193,0.715663,1.814998,1.030360,2.468368,-0.536565,-0.202469,1.160757,-0.445687,-0.176502,-0.694821,-0.109310,5.637638,1.759430,0.979453,1.086665,-0.442609,-0.416309,-1.926193,0.767271,2.608971
4.900000,0.904832,-1.130427,5.423884,1.663515,0.733395,1.758822,1.005844,2.579408,-0.557212,-0.323745,1.123343,-0.318505,0.064390,-0.502336,-0.117126,5.756045,1.678900,1.022828,1.124435,-0.382919,-0.279448,-1.742512,0.989371,2.566842
5.000000,0.929211,-1.099958,5.545300,1.774587,0.772297,1.705232,0.987748,2.686837,-0.555028,-0.358169,1.113580,-0.214771,0.286335,-0.345828,-0.151016,5.880687,1.583575,1.169522,1.179880,-0.276053,-0.086299,-1.715565,1.200663,2.398020
5.100000,0.948221,-1.069189,5.665838,1.910977,0.832779,1.650724,0.970130,2.800347,-0.547709,-0.318164,1.171499,-0.213187,0.421519,-0.259577,-0.197051,6.008098,1.501694,1.354241,1.276195,-0.117260,0.101133,-1.881540,1.326530,2.126412
5.200000,0.957309,-1.030144,5.786429,2.067746,0.909983,1.592340,0.948884,2.923899,-0.565373,-0.209771,1.280042,-0.370805,0.405906,-0.287378,-0.237951,6.140266,1.454510,1.468782,1.420971,0.058254,0.195503,-2.037651,1.303410,1.985925
5.300000,0.956924,-0.972158,5.908228,2.232919,0.993548,1.529525,0.946918,3.044419,-0.630448,0.026692,1.293435,-0.703718,0.214147,-0.459375,-0.246943,6.280129,1.451083,1.467860,1.564283,0.250467,0.173945,-2.202814,1.104287,2.005016
5.400000,0.956233,-0.886984,6.028656,2.387676,1.067714,1.464118,1.010555,3.143711,-0.709855,0.464402,1.014336,-1.011108,-0.133406,-0.780554,-0.205844,6.417190,1.458740,1.609657,1.594092,0.457918,0.301659,-2.620247,0.812440,1.968525
5.500000,0.967254,-0.774597,6.142843,2.513232,1.116873,1.399882,1.071578,3.242399,-0.719495,0.868451,0.500018,-0.878139,-0.591008,-1.190361,-0.091652,6.521452,1.343521,2.007005,1.505205,0.418770,0.617478,-3.120542,0.481063,1.859195
5.600000,0.999877,-0.647028,6.246578,2.591546,1.127180,1.342085,1.049845,3.300196,-0.730709,0.958316,0.000934,-0.430966,-1.180213,-1.623511,0.097751,6.583173,1.139371,2.389182,1.353312,0.156786,0.715454,2.712394,0.180194,1.826257
5.700000,1.055238,-0.525579,6.336511,2.606375,1.088608,1.294583,1.008520,3.279702,-0.788835,0.818600,-0.293482,-0.092915,-1.840812,-2.032709,0.317098,6.624496,0.879799,2.499444,1.233005,-0.043085,0.531799,2.266605,-0.282044,1.824414
5.800000,1.125748,-0.429151,6.412860,2.551762,1.001213,1.258531,1.013789,3.231863,-0.823854,0.744815,-0.313124,0.076280,-2.385155,-2.307479,0.500578,6.660402,0.628712,2.441523,1.269304,-0.028061,0.235762,1.983456,-0.670316,1.812491
5.900000,1.205818,-0.370523,6.476472,2.434805,0.875497,1.234545,1.078148,3.188481,-0.820756,0.850849,-0.166544,0.314614,-2.660981,-2.367978,0.614042,6.723010,0.450729,2.378212,1.472755,0.074256,0.006826,1.912169,-0.809525,1.785423
6.000000,1.298303,-0.354732,6.526084,2.274530,0.730405,1.221988,1.184483,3.181759,-0.778491,1.063525,0.182484,0.566407,-2.601112,-2.206173,0.669937,6.825695,0.393983,2.396225,1.779953,0.195783,-0.091134,2.005041,-0.658990,1.838930
6.100000,1.411953,-0.376734,6.565681,2.101806,0.590352,1.217521,1.276402,3.269599,-0.718608,1.086527,0.891354,0.475041,-2.208595,-1.863038,0.691310,6.970251,0.402184,2.352965,2.028902,0.365279,-0.308064,2.401830,-0.335861,1.866080
6.200000,1.553075,-0.427049,6.605650,1.952170,0.477105,1.217738,1.405038,3.437866,-0.550068,0.383092,1.462325,0.118102,-1.516676,-1.510106,0.629271,7.128278,0.339405,2.180977,2.062338,0.212781,-0.736008,2.904667,-0.007677,1.769304
6.300000,1.717924,-0.497406,6.655962,1.856262,0.405887,1.220830,1.636280,3.478804,-0.307861,-0.485213,1.250835,0.155984,-0.762516,-1.204378,0.426238,7.225626,0.226819,1.944811,1.815576,-0.023224,-0.904330,-2.960408,0.044209,1.743779
6.400000,1.892974,-0.582465,6.719282,1.833398,0.383808,1.224795,1.730019,3.489680,-0.074071,-1.028084,0.811966,0.468611,-0.097883,-0.981928,0.276725,7.281145,0.039494,1.796237,1.449488,-0.406953,-0.872490,-2.523480,0.138043,1.640756
6.500000,2.062873,-0.676622,6.789249,1.886021,0.405927,1.226780,1.715708,3.469357,0.030554,-1.130330,0.431953,0.514541,0.334129,-0.799072,0.155121,7.286716,-0.136290,1.703163,1.189105,-0.678223,-0.610673,-2.207677,0.202711,1.533383
6.600000,2.211419,-0.771343,6.859242,2.000245,0.459114,1.224510,1.597606,3.498623,0.098291,-1.129376,0.423215,0.323254,0.509353,-0.772758,0.106646,7.272926,-0.225222,1.558637,1.215789,-0.701922,-0.406675,-2.069112,0.120994,1.543730
6.700000,2.323502,-0.854908,6.931929,2.150429,0.527235,1.218023,1.451006,3.554410,0.054933,-0.900123,0.727652,-0.132708,0.306471,-0.940917,0.125009,7.295800,-0.152010,1.302576,1.567978,-0.342238,-0.411621,-2.270622,-0.217699,1.743847
6.800000,2.394996,-0.912139,7.018192,2.301982,0.588845,1.209710,1.439318,3.624352,-0.009382,-0.054651,0.957066,-0.591541,-0.230171,-1.365439,0.163112,7.395919,-0.099827,1.185340,1.917637,-0.107896,-0.074084,-2.938977,-0.714703,1.942444
6.900000,2.434146,-0.928549,7.129494,2.417116,0.618182,1.203266,1.534580,3.667192,-0.033331,0.972283,0.473159,-0.293411,-1.001948,-1.968394,0.252515,7.469868,-0.226940,1.157822,1.963263,-0.376495,0.240524,2.896895,-1.130524,1.883949
7.000000,2.453601,-0.899504,7.270288,2.463360,0.591590,1.203321,1.413684,3.616982,-0.251218,1.060200,-0.455254,-0.042711,-2.040939,-2.617083,0.568796,7.480924,-0.382653,1.155112,1.631850,-0.616567,0.355120,2.888388,-1.356374,1.321088
7.100000,2.458844,-0.837589,7.434252,2.419907,0.495773,1.213674,1.564001,3.587812,-0.208360,0.964490,-0.649425,-0.636622,-2.786678,3.131043,0.592970,7.417691,-0.506968,0.919288,1.148145,-0.752996,0.057389,-1.411930,-1.058707,-1.247314
7.200000,2.443431,-0.768631,7.606865,2.281367,0.334588,1.234287,1.706520,3.593857,-0.152770,0.754273,-0.240668,-0.842167,2.953464,2.794123,0.579407,7.312523,-0.564729,0.780775,0.863310,-0.657415,-0.031996,-2.295813,-1.230225,-0.863696
7.300000,2.401911,-0.717271,7.766509,2.057486,0.124578,1.263328,1.783406,3.614018,-0.192141,0.590149,0.027598,-0.732660,2.570072,2.626853,0.628744,7.206335,-0.593515,0.725790,0.839353,-0.553953,-0.138859,-2.637032,-1.308866,-0.837943
7.400000,2.345099,-0.695242,7.892354,1.770460,-0.115358,1.300717,1.834281,3.627706,-0.266162,0.562349,-0.084057,-0.503944,2.472339,2.598400,0.714886,7.131009,-0.637896,0.724753,1.005205,-0.664715,-0.216124,-2.568064,-1.318194,-0.922322
7.500000,2.299559,-0.702475,7.979086,1.452723,-0.367902,1.346884,1.891649,3.606188,-0.301410,0.633147,-0.456062,-0.059171,2.742847,2.720041,0.817277,7.140450,-0.696218,0.708069,1.382831,-0.792405,-0.370036,-2.393590,-1.237385,-0.710821
7.600000,2.291576,-0.738393,8.044423,1.142243,-0.617091,1.402574,1.954653,3.564106,-0.232592,0.544404,-0.520647,0.788156,-2.963720,3.037355,0.917468,7.214849,-0.692043,0.641974,1.840776,-0.497116,-0.657778,-1.839575,-0.911100,-0.572868
7.700000,2.325434,-0.815439,8.113570,0.874988,-0.844907,1.469986,1.986175,3.577973,-0.096895,0.021448,0.278289,1.298958,-2.232578,-2.795172,0.996341,7.200811,-0.763179,0.850694,2.119258,-0.308491,-0.007868,-0.904668,-0.466579,-1.058383
7.800000,2.388106,-0.951610,8.190640,0.677482,-1.029796,1.549645,1.986150,3.552101,0.073250,-1.037772,0.817505,0.695514,-1.433023,-2.296934,0.909745,7.222149,-0.725104,0.500096,1.980511,0.255002,-0.404563,-0.774401,0.785624,-1.220563
7.900000,2.471516,-1.150107,8.260862,0.563585,-1.153183,1.638698,1.955053,3.442781,0.170281,-1.690411,0.523626,0.015138,-0.683307,-1.687707,0.654243,7.292766,-0.635463,-0.076030,1.970674,0.391884,-1.212804,-2.859159,0.784904,2.957637
8.000000,2.577359,-1.391551,8.309970,0.536133,-1.204686,1.732486,1.804537,3.307922,0.319077,-2.039543,-0.195705,0.156192,-0.061872,-1.340463,0.487095,7.440238,-0.257691,-0.223515,1.730226,0.785054,-0.964425,3.041161,0.667502,2.558957
8.100000,2.711335,-1.641444,8.337272,0.587341,-1.184556,1.824556,1.620395,3.179324,0.435049,-1.960845,-0.680291,0.298839,0.391138,-1.071986,0.297299,7.626181,-0.058244,-0.156106,1.549856,0.668772,-0.377006,3.047718,0.645172,2.489985
8.200000,2.872206,-1.865403,8.352355,0.698906,-1.107702,1.908668,1.414453,3.067540,0.508562,-1.828161,-0.789937,0.233090,0.623890,-0.957404,0.161341,7.768201,0.054322,-0.272109,1.281998,0.534506,-0.111723,-3.029235,0.720101,2.670124
8.300000,3.040458,-2.040445,8.359618,0.846267,-1.000136,1.982016,1.224104,2.992823,0.520121,-1.625511,-0.493236,-0.061174,0.621043,-1.025103,0.097363,7.874869,0.154767,-0.485865,0.909841,0.698439,0.028030,-2.911102,0.675899,2.893623
8.400000,3.184219,-2.165528,8.354895,1.003994,-0.889020,2.045896,1.082828,2.973762,0.479869,-1.167220,0.003608,-0.493763,0.446648,-1.252330,0.091833,7.940615,0.267040,-0.696049,0.477869,1.000954,0.193845,-3.004356,0.454054,3.123917
8.500000,3.277902,-2.261619,8.334452,1.150931,-0.795955,2.105377,1.020748,3.006259,0.406767,-0.362920,0.426466,-0.782217,0.168794,-1.559231,0.132854,7.993250,0.342915,-0.796155,0.168053,1.105466,0.571730,3.015623,0.150393,-2.988839
8.600000,3.312100,-2.356264,8.301563,1.273849,-0.733497,2.166838,1.048818,3.061823,0.340412,0.543900,0.581621,-0.641366,-0.158408,-1.874266,0.201716,8.084179,0.337434,-0.770280,0.159139,0.988476,1.018691,2.753383,-0.138067,-2.891433
8.700000,3.293170,-2.468011,8.265493,1.365775,-0.705565,2.234572,1.144479,3.107310,0.307884,1.200850,0.433013,-0.181122,-0.492390,-2.143555,0.291643,8.221268,0.287257,-0.672513,0.331093,0.791584,1.326546,2.552182,-0.353724,-2.849070
8.800000,3.236699,-2.604095,8.233836,1.423727,-0.710513,2.309947,1.276460,3.121309,0.309401,1.515415,0.093739,0.264592,-0.798792,-2.333756,0.393803,8.379023,0.243923,-0.548105,0.534268,0.546989,1.464740,2.394658,-0.496490,-2.856289
8.900000,3.159750,-2.763262,8.208467,1.448864,-0.742356,2.391688,1.428460,3.101437,0.343000,1.614882,-0.244069,0.491060,-1.012088,-2.435334,0.472716,8.539997,0.208442,-0.422435,0.694964,0.319458,1.452559,2.299532,-0.568548,-2.893330
9.000000,3.078602,-2.936539,8.187205,1.446989,-0.791403,2.477390,1.591537,3.060280,0.395741,1.604826,-0.416190,0.537057,-1.097312,-2.448994,0.518513,8.689308,0.170033,-0.298870,0.764206,0.186148,1.343856,2.286868,-0.560508,-2.918114
9.100000,3.007081,-3.112222,8.166112,1.429139,-0.846590,2.565849,1.754988,3.015826,0.450076,1.516364,-0.374482,0.484461,-1.071607,-2.388685,0.549994,8.817898,0.135036,-0.178422,0.745909,0.171238,1.179265,2.350097,-0.487882,-2.905264
9.200000,2.954751,-3.277913,8.142685,1.408337,-0.898971,2.657234,1.905625,2.987365,0.491358,1.330871,-0.144612,0.333904,-0.958641,-2.262296,0.578774,8.922471,0.117605,-0.069893,0.653928,0.262514,0.951376,2.477581,-0.365165,-2.861166
9.300000,2.929207,-3.419457,8.117018,1.395200,-0.941972,2.752581,2.027261,2.988279,0.505634,1.000348,0.164491,0.065860,-0.772512,-2.070285,0.624438,9.001460,0.128033,0.013180,0.506942,0.411590,0.643563,2.666800,-0.189198,-2.788010
9.400000,2.935094,-3.524422,8.089751,1.398729,-0.968382,2.853250,2.101655,3.013130,0.488593,0.500829,0.346887,-0.251507,-0.548146,-1.828539,0.677214,9.054133,0.162698,0.061638,0.371076,0.548132,0.253007,2.894490,0.035784,-2.709185
9.500000,2.970730,-3.583024,8.062039,1.425572,-0.971808,2.959902,2.118168,3.036814,0.450003,-0.077689,0.263361,-0.476951,-0.333402,-1.553834,0.714726,9.098650,0.211941,0.070613,0.362859,0.640434,-0.153989,3.116741,0.297390,-2.644546
9.600000,3.028636,-3.588551,8.034260,1.476434,-0.948307,3.072337,2.080815,3.035226,0.409594,-0.583286,-0.022000,-0.478996,-0.154780,-1.263576,0.737226,9.169423,0.272908,0.047228,0.498020,0.709070,-0.451130,-2.982479,0.567950,-2.584575
9.700000,3.096055,-3.541663,8.004887,1.547731,-0.894573,-3.094383,2.004817,3.003278,0.389066,-0.911696,-0.328049,-0.274264,-0.011035,-1.009368,0.727000,9.276581,0.345100,0.016092,0.692541,0.770572,-0.571655,-2.842420,0.803034,-2.553537
9.800000,3.158375,-3.450601,7.972668,1.635855,-0.810656,-2.976928,1.906326,2.950355,0.395325,-1.067890,-0.536236,-0.031907,0.113882,-0.839771,0.684857,9.405208,0.423111,-0.001543,0.852589,0.804316,-0.523550,-2.746985,0.966159,-2.569845
9.900000,3.206524,-3.330081,7.936436,1.738420,-0.701903,-2.861044,1.796878,2.885573,0.414476,-1.113149,-0.639638,0.097843,0.214498,-0.771037,0.641282,9.539051,0.500179,-0.004974,0.910499,0.792180,-0.372716,-2.694523,1.030772,-2.607266
10.000000,3.240146,-3.199118,7.896048,1.852623,-0.577293,-2.748958,1.685468,2.816218,0.427045,-1.093877,-0.652490,0.065853,0.289471,-0.790838,0.609971,9.667627,0.570336,-0.004212,0.861085,0.752852,-0.204856,-2.652661,0.997062,-2.635669
10.100000,3.264575,-3.072479,7.854183,1.974943,-0.449203,-2.641130,1.579149,2.750553,0.425079,-1.023065,-0.588040,-0.071057,0.348272,-0.852979,0.601258,9.783277,0.632798,-0.002052,0.743839,0.718456,-0.046567,-2.605281,0.921252,-2.638310
10.200000,3.288002,-2.957575,7.816116,2.104450,-0.327077,-2.534474,1.482664,2.696431,0.403616,-0.910160,-0.456569,-0.264383,0.382241,-0.939286,0.608470,9.880587,0.690687,0.004816,0.591995,0.701364,0.100340,-2.567219,0.824477,-2.622258
10.300000,3.316642,-2.857207,7.789056,2.241237,-0.213418,-2.426647,1.400447,2.660674,0.361658,-0.762429,-0.269538,-0.455131,0.356984,-1.069098,0.623990,9.957091,0.747303,0.017334,0.437158,0.701976,0.213717,-2.579102,0.688966,-2.596691
10.400000,3.349775,-2.769470,7.778336,2.380235,-0.111023,-2.317952,1.336719,2.648429,0.303051,-0.571825,-0.038230,-0.607341,0.226720,-1.228535,0.643091,10.013040,0.806375,0.037010,0.288060,0.712516,0.308356,-2.693036,0.525957,-2.566637
10.500000,3.383488,-2.690751,7.787142,2.511800,-0.024147,-2.207625,1.298052,2.661144,0.236441,-0.308942,0.195660,-0.683159,-0.016827,-1.402550,0.654133,10.051622,0.865713,0.068552,0.168701,0.704141,0.407135,-2.920558,0.345279,-2.544684
10.600000,3.413594,-2.619776,7.816993,2.625025,0.044982,-2.094759,1.290290,2.689256,0.170044,-0.000019,0.337035,-0.665672,-0.341098,-1.567053,0.663262,10.085346,0.915630,0.121380,0.122931,0.661092,0.496762,3.062360,0.176310,-2.531017
10.700000,3.435877,-2.556110,7.863756,2.709084,0.094855,-1.980874,1.311518,2.717389,0.108907,0.265479,0.339492,-0.590579,-0.687192,-1.677168,0.672559,10.123582,0.950699,0.192342,0.141409,0.586196,0.544944,2.747308,0.072583,-2.527383
10.800000,3.448919,-2.498910,7.920618,2.757589,0.127883,-1.867877,1.351969,2.735777,0.053622,0.413523,0.245367,-0.532862,-0.994889,-1.707301,0.682830,10.166420,0.972053,0.266102,0.184921,0.504058,0.531439,2.463216,0.057275,-2.527790
10.900000,3.454074,-2.447037,7.980940,2.771496,0.152459,-1.755951,1.397407,2.744569,0.002241,0.422924,0.147561,-0.523198,-1.226283,-1.646615,0.707764,10.207811,0.986270,0.327328,0.214599,0.457375,0.465689,2.237876,0.128101,-2.506440
11.000000,3.452699,-2.398187,8.036985,2.756667,0.178744,-1.643914,1.435654,2.748140,-0.049759,0.331863,0.090368,-0.545863,-1.357319,-1.515121,0.734254,10.244141,1.002774,0.373358,0.218557,0.458771,0.388621,2.100196,0.260492,-2.474217
11.100000,3.445234,-2.350262,8.083697,2.721736,0.216038,-1.530661,1.459591,2.749580,-0.104274,0.187233,0.066091,-0.567361,-1.373541,-1.351893,0.750639,10.273189,1.026122,0.408624,0.198359,0.492767,0.329706,2.072730,0.419081,-2.446926
11.200000,3.431177,-2.302321,8.119590,2.677852,0.269663,-1.416352,1.466140,2.751121,-0.161132,0.020862,0.059701,-0.577727,-1.277128,-1.192066,0.758349,10.293927,1.058836,0.439497,0.167347,0.538015,0.299970,2.161602,0.574994,-2.426870
11.300000,3.408544,-2.254416,8.145827,2.637561,0.340469,-1.301233,1.456512,2.753479,-0.218039,-0.126921,0.047434,-0.567731,-1.092718,-1.071509,0.744231,10.308808,1.099674,0.470157,0.147537,0.561440,0.298492,2.345504,0.695731,-2.430093
11.400000,3.376327,-2.208728,8.167578,2.611834,0.426569,-1.185970,1.434895,2.755684,-0.273307,-0.218919,0.025256,-0.552162,-0.857922,-1.004128,0.709148,10.324544,1.146034,0.502787,0.144050,0.536712,0.329666,2.581242,0.767256,-2.459868
11.500000,3.336815,-2.168522,8.191758,2.607861,0.522554,-1.073537,1.409111,2.757798,-0.327409,-0.221007,0.016736,-0.557518,-0.616419,-0.988881,0.663260,10.343756,1.192105,0.538934,0.122577,0.454960,0.401725,2.820180,0.789115,-2.506591
11.600000,3.296440,-2.137188,8.225659,2.628867,0.623276,-0.966679,1.388410,2.763026,-0.384069,-0.134435,0.061643,-0.608118,-0.424484,-1.054848,0.620323,10.363324,1.234237,0.582458,0.056967,0.361426,0.505525,3.004656,0.729249,-2.555785
11.700000,3.263834,-2.117984,8.274875,2.672946,0.723443,-0.865057,1.383358,2.777857,-0.445467,0.030911,0.168877,-0.657077,-0.331619,-1.221843,0.593381,10.380323,1.273863,0.634727,-0.028383,0.299515,0.614437,3.089254,0.568072,-2.590033
11.800000,3.244475,-2.112831,8.339001,2.731802,0.811835,-0.767268,1.402180,2.805086,-0.507235,0.264241,0.295121,-0.633748,-0.364032,-1.440541,0.591676,10.394200,1.310110,0.702860,-0.094767,0.270117,0.725824,3.062565,0.355959,-2.595765
11.900000,3.241437,-2.121656,8.413864,2.793118,0.879227,-0.671621,1.447960,2.838654,-0.561849,0.517049,0.366072,-0.513473,-0.519247,-1.660970,0.620540,10.415919,1.338277,0.804944,-0.106434,0.266391,0.816747,2.953051,0.147343,-2.573172
12.000000,3.255616,-2.142068,8.495558,2.844499,0.924235,-0.575081,1.515053,2.867750,-0.603859,0.700949,0.338774,-0.340361,-0.768236,-1.863499,0.680404,10.460892,1.361170,0.930984,-0.067224,0.277605,0.838908,2.793937,-0.030117,-2.530098
12.100000,3.282545,-2.169443,8.578988,2.875734,0.946665,-0.474977,1.593029,2.886198,-0.632623,0.780645,0.234307,-0.199406,-1.061749,-2.016912,0.744671,10.530352,1.382841,1.045809,-0.005447,0.280256,0.788234,2.597780,-0.149407,-2.504569
12.200000,3.315630,-2.198111,8.658997,2.879724,0.949370,-0.370332,1.669397,2.895664,-0.650902,0.758219,0.127595,-0.139166,-1.327517,-2.102403,0.796198,10.607758,1.402081,1.132968,0.044399,0.277903,0.681372,2.402570,-0.204724,-2.499791
12.300000,3.348675,-2.223341,8.732754,2.854428,0.939665,-0.261722,1.737805,2.900420,-0.664566,0.675576,0.076383,-0.131474,-1.492611,-2.113120,0.814865,10.672734,1.417249,1.200380,0.062625,0.286662,0.558118,2.275689,-0.195660,-2.512741
12.400000,3.375544,-2.243244,8.798130,2.805428,0.924361,-0.151396,1.797139,2.905691,-0.678320,0.575309,0.084972,-0.148689,-1.512292,-2.042104,0.788282,10.714992,1.430285,1.258805,0.061449,0.310272,0.450339,2.271253,-0.113539,-2.550668
12.500000,3.393390,-2.258859,8.854832,2.745667,0.912011,-0.042644,1.847153,2.915596,-0.695723,0.469639,0.135878,-0.188217,-1.385115,-1.923106,0.740130,10.738982,1.446893,1.309657,0.057196,0.347326,0.357561,2.402659,0.011057,-2.598324
12.600000,3.402046,-2.272716,8.904729,2.691352,0.910591,0.061625,1.884558,2.933134,-0.719201,0.338755,0.201997,-0.243746,-1.140462,-1.796162,0.701951,10.753580,1.472178,1.348437,0.061169,0.385542,0.267300,2.647776,0.141263,-2.634378
12.700000,3.401862,-2.288490,8.948299,2.656417,0.921859,0.160942,1.907062,2.956675,-0.748549,0.193368,0.234134,-0.298392,-0.815036,-1.679256,0.685415,10.767994,1.505235,1.372429,0.089117,0.399053,0.196654,2.973430,0.262651,-2.652685
12.800000,3.395936,-2.307785,8.986891,2.650888,0.945709,0.257408,1.917538,2.979917,-0.781920,0.076875,0.223309,-0.336645,-0.471015,-1.594601,0.675281,10.787879,1.540324,1.386789,0.126006,0.388975,0.164528,-2.965952,0.353973,-2.666240
12.900000,3.388948,-2.328589,9.024156,2.681242,0.980922,0.352738,1.919202,3.000157,-0.817376,-0.001228,0.203635,-0.348945,-0.201884,-1.565084,0.668918,10.812497,1.574079,1.397011,0.143802,0.372154,0.146775,-2.698445,0.390102,-2.675466
13.000000,3.384070,-2.349605,9.060764,2.745190,1.022260,0.447571,1.915839,3.019643,-0.852013,-0.036767,0.204151,-0.333645,-0.073655,-1.603751,0.659918,10.836764,1.606017,1.404405,0.133587,0.361513,0.129942,-2.571009,0.357317,-2.686137
13.100000,3.383218,-2.370439,9.095635,2.829948,1.063684,0.542109,1.912392,3.042388,-0.883621,-0.020701,0.242717,-0.297544,-0.106027,-1.731565,0.638427,10.855661,1.638407,1.409703,0.101587,0.367114,0.114084,-2.602261,0.232581,-2.706942
13.200000,3.388776,-2.389446,9.129080,2.919666,1.097762,0.635161,1.915757,3.070856,-0.907902,0.038487,0.297308,-0.219526,-0.287011,-1.962148,0.613323,10.865499,1.673134,1.415484,0.056232,0.378697,0.096599,-2.779267,0.003412,-2.725784
13.300000,3.402132,-2.406542,9.160082,2.998371,1.113539,0.725799,1.926724,3.102144,-0.919515,0.115937,0.322849,-0.083101,-0.566228,-2.255046,0.585462,10.869283,1.709186,1.426395,0.009078,0.387187,0.098511,-3.051601,-0.287484,-2.741375
13.400000,3.422805,-2.422410,9.187235,3.051641,1.101493,0.813692,1.939522,3.129353,-0.916037,0.169456,0.276657,0.083484,-0.861746,-2.548652,0.561169,10.883103,1.744401,1.443130,-0.011575,0.383309,0.122234,2.953586,-0.576570,-2.759195
13.500000,3.450113,-2.435055,9.210773,3.073822,1.058205,0.897835,1.948743,3.147221,-0.900198,0.154789,0.186935,0.204870,-1.103894,-2.791718,0.570431,10.915655,1.777641,1.456487,-0.019881,0.365807,0.126419,2.749856,-0.813605,-2.763505
13.600000,3.481336,-2.444403,9.229954,3.067614,0.986486,0.979960,1.954586,3.157912,-0.876965,0.090029,0.131191,0.257780,-1.238540,-2.941686,0.612148,10.949576,1.810631,1.463204,-0.055477,0.351088,0.109631,2.660707,-0.957939,-2.745119
13.700000,3.512530,-2.453802,9.242843,3.040639,0.893753,1.064478,1.955856,3.167467,-0.850794,0.000667,0.128007,0.266503,-1.228908,-2.992227,0.657625,10.967943,1.843714,1.467823,-0.123316,0.339057,0.087582,2.703368,-1.004648,-2.717542
13.800000,3.542205,-2.464004,9.248148,3.006857,0.789995,1.153554,1.948425,3.180990,-0.826562,-0.108641,0.174341,0.227994,-1.092814,-2.961361,0.698874,10.963965,1.873599,1.472350,-0.227426,0.316425,0.045342,2.852298,-0.971493,-2.681779
13.900000,3.570411,-2.475628,9.244335,2.981582,0.685413,1.247161,1.928296,3.201159,-0.811264,-0.234476,0.240651,0.125219,-0.874232,-2.874510,0.731396,10.938104,1.893760,1.471961,-0.348824,0.263614,-0.031834,3.071221,-0.880825,-2.645488
14.000000,3.598407,-2.491058,9.228261,2.975077,0.587456,1.344420,1.896110,3.224521,-0.810705,-0.351259,0.265687,-0.026139,-0.616905,-2.747747,0.738924,10.907130,1.900402,1.453657,-0.434126,0.178480,-0.139687,-2.942942,-0.747485,-2.647306
14.100000,3.628060,-2.509185,9.198508,2.993365,0.500572,1.443414,1.857437,3.243580,-0.824930,-0.436560,0.221260,-0.171525,-0.372049,-2.584984,0.731152,10.896854,1.896420,1.403144,-0.445029,0.093286,-0.257883,-2.667295,-0.574659,-2.700925
14.200000,3.659840,-2.527209,9.157217,3.038362,0.428451,1.542665,1.816526,3.254913,-0.847385,-0.482792,0.137949,-0.250095,-0.184906,-2.419823,0.725862,10.916791,1.889807,1.323082,-0.393078,0.047855,-0.344622,-2.455471,-0.395989,-2.782968
14.300000,3.692708,-2.543150,9.108512,3.107008,0.373346,1.641634,1.772947,3.260098,-0.871379,-0.483614,0.071018,-0.246380,-0.060269,-2.277067,0.726498,10.953964,1.885645,1.231243,-0.316624,0.062569,-0.368421,-2.329195,-0.240722,-2.866490
14.400000,3.724655,-2.554677,9.059169,-3.090254,0.334621,1.740284,1.729326,3.263582,-0.891533,-0.432544,0.069116,-0.179270,0.005291,-2.163200,0.733665,10.991231,1.887769,1.146568,-0.244792,0.141701,-0.328679,-2.279396,-0.118586,-2.930585
14.500000,3.754440,-2.560315,9.017805,-2.994175,0.309775,1.838651,1.690056,3.272209,-0.904365,-0.341841,0.142146,-0.082694,-0.002373,-2.088809,0.746814,11.018080,1.900423,1.080676,-0.195992,0.264548,-0.243607,-2.307270,-0.039417,-2.967508
14.600000,3.782955,-2.558856,8.991100,-2.894796,0.294911,1.937342,1.662040,3.291165,-0.907101,-0.215618,0.259340,0.028922,-0.069334,-2.056948,0.768891,11.031049,1.925609,1.039129,-0.178870,0.404654,-0.121929,-2.388292,-0.004412,-2.973915
14.700000,3.812644,-2.548136,8.981860,-2.799391,0.285315,2.038240,1.649891,3.322691,-0.897503,-0.059856,0.384187,0.157441,-0.160241,-2.064504,0.790263,11.030891,1.964295,1.023432,-0.194112,0.539495,0.031556,-2.486137,-0.012344,-2.964900
14.800000,3.845517,-2.525105,8.990525,-2.712948,0.276943,2.141710,1.655654,3.364975,-0.872833,0.104793,0.478204,0.308451,-0.253806,-2.113198,0.801301,11.022741,2.016472,1.032709,-0.225390,0.649414,0.199515,-2.584083,-0.067417,-2.959449
14.900000,3.881564,-2.486293,9.015121,-2.635824,0.265890,2.246608,1.674986,3.413125,-0.831392,0.239126,0.520441,0.478893,-0.335028,-2.200480,0.808981,11.020838,2.082599,1.059820,-0.242338,0.732421,0.360073,-2.670860,-0.165132,-2.967027
15.000000,3.919261,-2.430168,9.050221,-2.567312,0.247811,2.352868,1.701249,3.461564,-0.772252,0.322506,0.504013,0.660818,-0.397835,-2.313828,0.804659,11.042951,2.163599,1.095169,-0.222963,0.795835,0.500875,-2.732334,-0.285276,-3.010999
15.100000,3.955913,-2.356921,9.090940,-2.506536,0.219169,2.459073,1.728824,3.505131,-0.696393,0.350057,0.437367,0.831282,-0.451780,-2.428664,0.796974,11.096139,2.257029,1.132496,-0.170310,0.851348,0.603692,-2.765153,-0.394842,-3.084601
15.200000,3.988067,-2.267780,9.133963,-2.451851,0.177980,2.563543,1.757599,3.539980,-0.606274,0.336586,0.344045,0.965306,-0.515521,-2.520065,0.807408,11.169362,2.359405,1.171746,-0.108782,0.896913,0.660529,-2.786933,-0.471898,3.132223
15.300000,4.012861,-2.166668,9.175027,-2.403651,0.125170,2.667835,1.790151,3.564052,-0.506733,0.303978,0.242208,1.037695,-0.590315,-2.572762,0.840465,11.247705,2.466488,1.216402,-0.064771,0.915016,0.673107,-2.813979,-0.514184,3.094418
15.400000,4.027323,-2.058643,9.211009,-2.363184,0.064480,2.774169,1.824485,3.579091,-0.405028,0.260830,0.161576,1.041922,-0.674511,-2.578790,0.886963,11.313110,2.570014,1.270341,-0.057296,0.901623,0.648885,-2.862775,-0.527337,3.090059
15.500000,4.028493,-1.949542,9.239552,-2.330945,-0.000452,2.885050,1.859974,3.589248,-0.305877,0.220752,0.115387,0.995166,-0.767724,-2.535653,0.938227,11.352075,2.662497,1.332836,-0.090014,0.856036,0.605006,-2.936840,-0.512284,3.119733
15.600000,4.014794,-1.846398,9.258488,-2.308016,-0.064621,3.002448,1.893410,3.597579,-0.214116,0.172549,0.100046,0.917045,-0.862566,-2.461867,0.990695,11.362898,2.740817,1.397787,-0.160160,0.791916,0.535755,-3.018466,-0.484784,-3.110020
15.700000,3.985831,-1.755019,9.268033,-2.294858,-0.122111,3.125333,1.920218,3.606496,-0.130835,0.087293,0.113766,0.828629,-0.959815,-2.389360,1.042248,11.353785,2.808939,1.455933,-0.258620,0.729609,0.423180,-3.098587,-0.463902,-3.050700
15.800000,3.942799,-1.681211,9.266283,-2.291503,-0.172487,-3.029184,1.933954,3.618785,-0.053964,-0.027522,0.145401,0.747848,-1.049303,-2.307994,1.073053,11.322829,2.868509,1.498132,-0.365786,0.674793,0.290344,3.113286,-0.418847,-3.009857
15.900000,3.888835,-1.629669,9.251015,-2.297897,-0.216719,-2.894412,1.937398,3.635540,0.017644,-0.116033,0.197546,0.693553,-1.127454,-2.207276,1.077779,11.274241,2.922826,1.523191,-0.447675,0.637826,0.173563,3.053681,-0.339062,-2.994967
16.000000,3.828067,-1.599215,9.225931,-2.312410,-0.251214,-2.757157,1.930718,3.659451,0.084668,-0.181650,0.265830,0.656083,-1.196232,-2.119517,1.093850,11.217209,2.975323,1.534685,-0.501577,0.620577,0.069456,3.000948,-0.264000,-2.972134
16.100000,3.764398,-1.586730,9.193367,-2.334115,-0.275448,-2.618998,1.915030,3.691340,0.148953,-0.229046,0.335817,0.631238,-1.243628,-2.047010,1.109654,11.159008,3.030080,1.531520,-0.530993,0.616287,-0.005755,2.964593,-0.196019,-2.952778
16.200000,3.700754,-1.589971,9.153383,-2.362436,-0.292462,-2.479348,1.893789,3.730305,0.211258,-0.228070,0.396224,0.614583,-1.255669,-1.974908,1.115107,11.105789,3.089439,1.516156,-0.536246,0.615488,-0.026169,2.958313,-0.122413,-2.948381
16.300000,3.637687,-1.603501,9.110887,-2.393933,-0.301708,-2.339067,1.871049,3.773433,0.272930,-0.201650,0.440624,0.606270,-1.233224,-1.926967,1.147276,11.056953,3.151908,1.493141,-0.537904,0.616135,-0.006793,2.984621,-0.069278,-2.921429
16.400000,3.574057,-1.622251,9.069892,-2.424801,-0.303679,-2.196432,1.851244,3.817572,0.336681,-0.166989,0.469148,0.616354,-1.187290,-1.914412,1.195794,11.010562,3.216743,1.466487,-0.552139,0.615084,0.046854,3.034219,-0.046147,-2.879420
16.500000,3.508046,-1.645498,9.032006,-2.452201,-0.302563,-2.048371,1.837373,3.861877,0.403979,-0.100396,0.489643,0.653228,-1.139766,-1.923681,1.236825,10.961854,3.281126,1.445047,-0.582552,0.613217,0.147514,3.085580,-0.041911,-2.845065
16.600000,3.436915,-1.673059,9.001784,-2.473970,-0.300888,-1.894512,1.833417,3.907620,0.476605,-0.002749,0.514923,0.718946,-1.115218,-1.962617,1.272192,10.904333,3.341705,1.443969,-0.625720,0.618126,0.284291,3.113739,-0.069559,-2.813589
16.700000,3.358306,-1.706067,8.982970,-2.491190,-0.300497,-1.735958,1.847708,3.952952,0.558054,0.113712,0.515403,0.818984,-1.133275,-2.056758,1.291490,10.845057,3.400995,1.474363,-0.667647,0.627588,0.442223,3.099885,-0.161141,-2.794242
16.800000,3.272160,-1.748845,8.976591,-2.507197,-0.305887,-1.574989,1.883141,3.993157,0.651014,0.246518,0.437685,0.954736,-1.214120,-2.216918,1.280203,10.827577,3.484126,1.526536,-0.666301,0.654135,0.613323,3.030257,-0.334525,-2.817442
16.900000,3.180533,-1.806010,8.982781,-2.526880,-0.324190,-1.413672,1.929760,4.024694,0.748572,0.369523,0.238935,1.080015,-1.355747,-2.424693,1.260226,10.938630,3.645825,1.555028,-0.575046,0.725060,0.765304,2.954797,-0.573096,-2.911302
17.000000,3.088625,-1.881297,9.000281,-2.558187,-0.362698,-1.252777,1.979443,4.049737,0.832402,0.457672,-0.044679,1.129142,-1.530558,-2.636375,1.258158,11.192561,3.898836,1.535568,-0.409660,0.849982,0.856023,2.973162,-0.816401,-3.088387
17.100000,3.003739,-1.975676,9.028750,-2.607827,-0.425133,-1.092726,2.069735,4.071815,0.887066,0.530673,-0.325440,1.072459,-1.729946,-2.811774,1.265544,11.525001,4.199254,1.500233,-0.240265,0.993701,0.856240,3.094992,-1.005483,2.963072
17.200000,2.932510,-2.085975,9.067792,-2.678632,-0.512611,-0.931442,2.191869,4.084047,0.920065,0.559458,-0.532074,0.968420,-1.941981,-2.929671,1.307702,11.847230,4.483722,1.517851,-0.147971,1.118325,0.800925,-3.027199,-1.136545,2.746291
17.300000,2.882606,-2.207229,9.114101,-2.772101,-0.623797,-0.764659,2.336398,4.064269,0.959632,0.563607,-0.644648,0.917054,-2.131642,-2.960218,1.383624,12.069707,4.709396,1.590306,-0.164944,1.206451,0.737126,-2.897388,-1.185737,2.612312
17.400000,2.859584,-2.332956,9.164567,-2.886427,-0.750545,-0.589556,2.515628,4.026293,1.012214,0.559657,-0.637713,0.979071,-2.259394,-2.880313,1.468894,12.166307,4.884899,1.656320,-0.297649,1.264483,0.653713,-2.854593,-1.129843,2.623600
17.500000,2.863244,-2.457272,9.217221,-3.014569,-0.880195,-0.405266,2.659902,3.980365,1.098820,0.474108,-0.516305,1.146379,-2.282910,-2.730036,1.526505,12.156980,5.024226,1.697739,-0.509109,1.296314,0.518153,-2.837855,-0.991302,2.699515
17.600000,2.893334,-2.578069,9.269789,3.135620,-1.001924,-0.212236,2.717411,3.946817,1.224662,0.258447,-0.250511,1.324907,-2.156389,-2.517403,1.524220,12.082542,5.135039,1.715910,-0.696233,1.294829,0.298813,-2.744164,-0.769469,2.759393
17.700000,2.948779,-2.694960,9.321664,3.008266,-1.106258,-0.012387,2.624011,3.945457,1.377836,-0.080112,0.109388,1.352572,-1.847095,-2.259607,1.483507,12.035822,5.239851,1.714319,-0.743243,1.235317,0.017674,-2.525129,-0.470874,2.754854
17.800000,3.022966,-2.806426,9.374317,2.900161,-1.183877,0.190277,2.391503,3.972159,1.530041,-0.444937,0.378371,1.186412,-1.391465,-2.006857,1.411562,12.078391,5.350353,1.693035,-0.625962,1.126052,-0.223756,-2.228577,-0.172417,2.646373
17.900000,3.107426,-2.910000,9.428733,2.824600,-1.229895,0.391189,2.209459,4.001576,1.651990,-0.675746,0.499277,0.966802,-0.910138,-1.793200,1.293310,12.162722,5.448450,1.649535,-0.418846,1.027996,-0.359996,-1.901562,0.042200,2.471202
18.000000,3.193863,-3.004675,9.484724,2.790050,-1.247250,0.588827,2.149693,4.045569,1.736644,-0.707262,0.581450,0.802810,-0.496109,-1.651222,1.179152,12.239668,5.539876,1.564651,-0.172963,0.986788,-0.445635,-1.577367,0.157475,2.299340
18.100000,3.273311,-3.092517,9.544069,2.798889,-1.244863,0.783494,2.124056,4.102054,1.805925,-0.651173,0.725017,0.713723,-0.194566,-1.624668,1.100948,12.285231,5.627057,1.436508,0.096537,0.993480,-0.590644,-1.312553,0.175624,2.174700
18.200000,3.340700,-3.179696,9.611529,2.846405,-1.234680,0.975489,2.079422,4.172748,1.876657,-0.605101,0.961971,0.720876,-0.063179,-1.724373,1.062168,12.285806,5.695904,1.308683,0.332672,1.048981,-0.823115,-1.181214,0.070570,2.116265
18.300000,3.399903,-3.275390,9.692365,2.919326,-1.229130,1.166163,1.981326,4.210426,1.992184,-0.542185,1.181471,0.949017,-0.114314,-1.978666,1.049704,12.265538,5.778219,1.228332,0.470516,1.251684,-1.037152,-1.260306,-0.173330,2.137197
18.400000,3.462802,-3.386541,9.791015,2.997720,-1.239655,1.357078,1.724889,4.193557,2.194957,-0.482988,1.110859,1.441925,-0.279372,-2.390873,1.011692,12.424879,5.991747,1.203048,0.707336,1.562702,-0.959741,-1.605340,-0.463999,2.151900
18.500000,3.545643,-3.511587,9.907688,3.059213,-1.279002,1.550709,1.290605,4.297058,2.377113,-0.466327,0.635183,1.713246,-0.474672,-2.812394,0.870702,12.923224,6.291718,1.135768,1.265299,1.559283,-0.672777,-1.897527,-0.672470,1.900380
18.600000,3.660432,-3.638591,10.036271,3.082030,-1.359785,1.749913,0.627284,4.317242,2.560754,-0.720098,-0.042957,1.514795,-0.689636,3.015162,0.672128,13.458502,6.476924,0.970661,1.655573,1.264350,-0.561340,-2.046987,-0.805488,1.583074
18.700000,3.806529,-3.752414,10.166889,3.049025,-1.486680,1.954849,-0.106607,4.179299,2.740824,-1.093404,-0.512447,0.953662,-0.940898,2.590856,0.475027,13.876260,6.533768,0.850187,1.723691,1.003293,-0.520396,-2.217965,-0.871575,1.319742
18.800000,3.973488,-3.840679,10.287958,2.953549,-1.653663,2.165347,-0.715859,3.982931,2.863843,-1.347448,-0.629827,0.395047,-1.180516,2.341069,0.374986,14.174117,6.542601,0.750920,1.575193,0.941251,-0.543841,-2.399596,-0.807967,1.184875
18.900000,4.148082,-3.893559,10.391289,2.802198,-1.845822,2.381777,-1.046628,3.762215,2.950978,-1.495655,-0.530776,0.170821,-1.355793,2.323821,0.360345,14.410999,6.593382,0.666592,1.373360,1.075775,-0.698369,-2.548809,-0.611178,1.210338
19.000000,4.319636,-3.903793,10.476056,2.613233,-2.042011,2.602308,-1.196254,3.599979,3.021439,-1.650376,-0.222206,0.278092,-1.325593,2.512643,0.391808,14.584207,6.711331,0.599533,1.159211,1.274076,-1.010868,-2.475093,-0.336407,1.301646
19.100000,4.482136,-3.864848,10.544527,2.414160,-2.221950,2.825417,-1.429836,3.586627,3.063031,-1.670796,0.417869,0.334041,-0.930753,2.859055,0.423346,14.658194,6.810426,0.473631,0.810014,1.314828,-1.407760,-2.099221,0.041401,1.332945
19.200000,4.630076,-3.771979,10.596598,2.237216,-2.369796,3.050395,-1.663720,3.682409,3.052498,-1.628970,0.886975,-0.080158,-0.289200,-2.925330,0.419599,14.626324,6.816737,0.305954,0.329966,1.176201,-1.565090,-1.626463,0.492703,1.180271
19.300000,4.751582,-3.626558,10.629348,2.111732,-2.472403,-3.007358,-1.481739,3.638714,3.126610,-1.723774,0.586481,-0.232072,0.249835,-2.363367,0.396181,14.533022,6.876809,0.221905,-0.061804,1.280205,-1.328621,-1.142504,0.877843,0.833946
19.400000,4.829211,-3.438844,10.643461,2.057374,-2.521724,-2.782041,-1.204162,3.589899,3.268815,-1.624527,0.057084,0.109692,0.739844,-1.834440,0.322815,14.530504,6.994124,0.079308,-0.159323,1.422255,-1.171372,-1.114770,1.290562,0.106014
19.500000,4.849371,-3.228507,10.646931,2.080891,-2.517519,-2.557714,-1.087342,3.540718,3.400789,-1.313172,-0.409449,0.501117,1.196480,-1.439771,0.209384,14.515368,7.095751,-0.199433,-0.257481,1.308985,-1.201760,-2.951475,1.262856,-2.203495
19.600000,4.809507,-3.020979,10.650365,2.175832,-2.466100,-2.335958,-1.128394,3.432500,3.501133,-1.035983,-0.742491,0.726862,1.513327,-1.218281,0.147550,14.346646,7.287940,-0.387188,-0.494568,1.195341,-0.939747,3.125594,1.178584,-2.631455
19.700000,4.721643,-2.840560,10.660429,2.324106,-2.380133,-2.117736,-1.237752,3.306067,3.590336,-1.025218,-0.760373,0.861917,1.570694,-1.199305,0.121828,14.225803,7.439778,-0.536714,-0.762435,1.051095,-0.715848,3.140854,1.051430,-2.612888
19.800000,4.609490,-2.698681,10.676637,2.497513,-2.279331,-1.903674,-1.382415,3.212849,3.671333,-1.241179,-0.379516,0.855778,1.342745,-1.398819,0.138566,14.138510,7.522423,-0.659565,-1.125488,0.870127,-0.550648,2.941497,0.836909,-2.529509
19.900000,4.491725,-2.586661,10.693367,2.662276,-2.188150,-1.691616,-1.462528,3.224654,3.760586,-1.281723,0.387088,0.639153,0.824051,-1.764992,0.201158,13.984667,7.745076,-0.484034,-1.372120,0.828474,0.057523,2.531614,0.388781,-2.718561
20.000000,4.369904,-2.487242,10.707327,2.787672,-2.129359,-1.477809,-1.467499,3.328017,3.873116,-0.881346,1.045508,0.700003,0.128742,-2.216017,0.287895,13.880845,7.985423,-0.197644,-1.290227,0.796397,0.718118,2.203400,-0.085547,-2.957803
20.100000,4.234197,-2.392223,10.718640,2.852810,-2.117136,-1.260856,-1.556165,3.444148,3.979196,-0.601392,1.016407,1.141184,-0.438008,-2.601893,0.357706,13.840960,8.142591,0.047249,-1.069377,0.687035,1.067320,1.901235,-0.395248,3.096298
20.200000,4.076453,-2.308773,10.727086,2.849799,-2.152644,-1.039103,-1.691853,3.493656,4.085704,-0.578008,0.600877,1.395708,-0.849174,-2.846952,0.409157,13.765222,8.233964,0.242828,-0.853998,0.605166,1.261505,1.780960,-0.596899,2.782155
20.300000,3.899779,-2.250175,10.731341,2.784346,-2.224194,-0.811473,-1.793404,3.518285,4.212875,-0.594418,0.257573,1.486804,-1.100493,-2.936252,0.416204,13.687530,8.307200,0.423006,-0.638070,0.651179,1.354411,1.796956,-0.603591,2.493239
20.400000,3.715442,-2.225580,10.729171,2.673312,-2.314267,-0.580582,-1.852525,3.540695,4.364927,-0.592151,0.197924,1.538094,-1.156732,-2.886179,0.395384,13.639165,8.389900,0.602416,-0.414487,0.781344,1.356477,1.863673,-0.462530,2.360721
20.500000,3.535978,-2.240515,10.719319,2.540649,-2.405912,-0.348750,-1.898589,3.591925,4.519303,-0.587016,0.458611,1.510337,-0.994387,-2.731568,0.366559,13.618198,8.483792,0.762549,-0.208613,0.956205,1.309563,2.041673,-0.247446,2.346828
20.600000,3.372387,-2.297818,10.702891,2.412887,-2.484842,-0.116951,-1.981052,3.689157,4.629086,-0.662819,0.898430,1.238434,-0.615488,-2.503797,0.341371,13.636783,8.567770,0.881269,0.023244,1.139571,1.171299,2.367897,-0.030504,2.353807
20.700000,3.235485,-2.397068,10.681241,2.313927,-2.542172,0.112769,-2.097493,3.812637,4.688777,-0.908486,1.138591,0.775048,-0.119055,-2.208331,0.289678,13.754518,8.629164,0.955498,0.415772,1.190536,0.886350,2.719064,0.122205,2.190098
20.800000,3.136694,-2.533666,10.656838,2.260070,-2.572451,0.339196,-2.196605,3.908170,4.757524,-1.207698,1.002942,0.505742,0.327938,-1.880992,0.224585,13.962836,8.692665,0.991345,0.863875,1.015486,0.526335,2.943447,0.242936,1.887469
20.900000,3.086310,-2.697848,10.633855,2.257300,-2.570364,0.562848,-2.271611,3.954530,4.861861,-1.360966,0.686857,0.548259,0.649923,-1.570892,0.187232,14.180398,8.748197,0.995246,1.142146,0.715141,0.225056,3.056211,0.361800,1.638520
21.000000,3.090839,-2.873691,10.616226,2.302310,-2.533820,0.784565,-2.363806,3.973845,4.970899,-1.356853,0.418087,0.730852,0.847513,-1.309057,0.148139,14.379812,8.788127,0.983748,1.261344,0.424405,0.055697,3.064259,0.469330,1.456212
21.100000,3.148528,-3.041679,10.607451,2.384145,-2.464673,1.004587,-2.498978,3.977972,5.061839,-1.296352,0.319803,0.886934,0.912537,-1.154232,0.090575,14.565544,8.808182,0.973637,1.314338,0.225177,0.039030,2.976472,0.522993,1.328150
21.200000,3.249365,-3.184899,10.608627,2.485786,-2.369567,1.221423,-2.646642,4.000571,5.145224,-1.232134,0.460311,0.935984,0.851723,-1.141608,0.016882,14.746862,8.806489,0.982383,1.357720,0.158609,0.161681,2.822240,0.475442,1.249115
21.300000,3.377943,-3.294762,10.615914,2.589190,-2.263052,1.432123,-2.757142,4.078318,5.232061,-1.065514,0.801373,0.841952,0.689913,-1.240191,-0.066815,14.914343,8.795760,1.018028,1.366291,0.196615,0.383533,2.624159,0.346169,1.200670
21.400000,3.519044,-3.374164,10.623851,2.679533,-2.161049,1.634335,-2.818088,4.199101,5.315579,-0.738271,1.161102,0.657461,0.478305,-1.412613,-0.120127,15.050749,8.789535,1.075247,1.299688,0.260595,0.641648,2.418235,0.173390,1.176459
21.500000,3.665954,-3.431578,10.629271,2.747916,-2.074252,1.828207,-2.844550,4.326398,5.387358,-0.330925,1.381573,0.507978,0.295569,-1.605612,-0.156431,15.152513,8.782093,1.147983,1.163603,0.277808,0.869609,2.265897,0.000883,1.133265
21.600000,3.819311,-3.472063,10.632210,2.794347,-2.008274,2.015801,-2.839541,4.461726,5.450941,0.016445,1.474808,0.458294,0.198526,-1.758426,-0.189428,15.232403,8.767146,1.235728,1.020637,0.245729,1.037553,2.209768,-0.125643,1.076174
21.700000,3.979732,-3.494939,10.634827,2.825796,-1.961254,2.198292,-2.813371,4.613705,5.503975,0.206747,1.524055,0.448455,0.206312,-1.870698,-0.212927,15.306447,8.743408,1.333019,0.929705,0.172677,1.149255,2.260027,-0.208719,1.042925
21.800000,4.145189,-3.494819,10.638667,2.852403,-1.927505,2.375832,-2.775839,4.781106,5.548482,0.251384,1.579648,0.415620,0.304735,-1.933549,-0.255187,15.388366,8.713013,1.431940,0.909493,0.076573,1.205075,2.392520,-0.241886,1.017708
21.900000,4.310658,-3.465197,10.645109,2.885450,-1.903378,2.548940,-2.742631,4.953376,5.586110,0.187216,1.614488,0.346765,0.463315,-1.907412,-0.317062,15.482717,8.685536,1.536009,0.936964,-0.012477,1.194300,2.561360,-0.198003,0.989787
22.000000,4.466895,-3.401534,10.655477,2.933258,-1.882293,2.717639,-2.726345,5.123236,5.615589,0.054015,1.622455,0.282258,0.655486,-1.788788,-0.391958,15.585527,8.654184,1.656737,0.978878,-0.108493,1.140650,2.738807,-0.084521,0.946476
22.100000,4.602179,-3.303407,10.669789,3.000600,-1.853328,2.880789,-2.738811,5.279006,5.636069,-0.097320,1.607004,0.282451,0.839212,-1.632764,-0.472557,15.691201,8.588550,1.798474,1.012049,-0.245681,1.059641,2.890137,0.045736,0.866645
22.200000,4.706402,-3.175790,10.688488,3.089717,-1.808564,3.037284,-2.776158,5.421652,5.653433,-0.227943,1.569013,0.333468,0.960264,-1.505045,-0.546128,15.795962,8.479580,1.940170,1.025043,-0.414939,0.947009,2.965717,0.141032,0.764658
22.300000,4.769794,-3.026959,10.712712,-3.086470,-1.746592,-3.096408,-2.827073,5.560797,5.673129,-0.286644,1.532290,0.389103,0.989184,-1.437793,-0.621936,15.892913,8.351901,2.069875,1.014187,-0.568113,0.844869,2.941512,0.180015,0.659624
22.400000,4.784455,-2.868769,10.741834,-2.970287,-1.671801,-2.954544,-2.870460,5.704790,5.698990,-0.228153,1.520380,0.406839,0.918692,-1.442347,-0.699838,15.980977,8.235939,2.189769,0.991838,-0.673894,0.791105,2.822704,0.158068,0.567657
22.500000,4.750937,-2.715083,10.773156,-2.855421,-1.591856,-2.821403,-2.884168,5.852589,5.731436,-0.050443,1.514972,0.368267,0.746557,-1.518918,-0.766830,16.064688,8.152879,2.295735,0.969619,-0.735883,0.781845,2.621576,0.083233,0.496013
22.600000,4.675029,-2.577963,10.803237,-2.754953,-1.515232,-2.696987,-2.862795,5.993755,5.768446,0.209869,1.486908,0.296875,0.507261,-1.657539,-0.802703,16.147936,8.091672,2.381381,0.929693,-0.768124,0.805654,2.383991,-0.031657,0.442611
22.700000,4.565086,-2.465775,10.829024,-2.678683,-1.450136,-2.579990,-2.837579,6.108379,5.808024,0.471901,1.407172,0.238111,0.261765,-1.825983,-0.803562,16.220464,8.021659,2.449773,0.839925,-0.800502,0.849778,2.170394,-0.163023,0.386455
22.800000,4.431750,-2.380162,10.848836,-2.628902,-1.401866,-2.468663,-2.756844,6.225696,5.865113,0.726639,1.314263,0.224376,0.057524,-1.980540,-0.812070,16.266573,7.919694,2.519514,0.695773,-0.849768,0.898144,2.028503,-0.284438,0.302809
22.900000,4.283152,-2.320307,10.861957,-2.603640,-1.371483,-2.361924,-2.667513,6.336401,5.908007,0.916986,1.227226,0.220813,-0.038794,-2.106552,-0.843136,16.286024,7.795546,2.597666,0.522774,-0.890710,0.946348,1.999725,-0.375138,0.203333
23.000000,4.125083,-2.284357,10.869339,-2.595154,-1.356993,-2.260270,-2.554893,6.450841,5.927746,1.083111,1.163954,0.196575,-0.002824,-2.170611,-0.902118,16.293055,7.672555,2.683142,0.346719,-0.900274,1.014734,2.088373,-0.400082,0.112282
23.100000,3.961981,-2.264872,10.872843,-2.589683,-1.352757,-2.164890,-2.426536,6.565462,5.935164,1.196017,1.112191,0.134622,0.154004,-2.164892,-0.995943,16.297469,7.567659,2.775583,0.200773,-0.878901,1.082252,2.268480,-0.362085,0.021380
23.200000,3.795922,-2.254398,10.873598,-2.573057,-1.350211,-2.077755,-2.272338,6.683269,5.954279,1.263217,1.081345,0.038225,0.375983,-2.130670,-1.111219,16.292680,7.475925,2.876202,0.076412,-0.859175,1.151949,2.488191,-0.323729,-0.067223
23.300000,3.627221,-2.250294,10.872477,-2.534381,-1.344013,-2.001026,-2.082935,6.805266,5.997890,1.326101,1.064195,-0.072466,0.590810,-2.122062,-1.233680,16.276313,7.387814,2.972635,-0.044465,-0.860683,1.222290,2.683668,-0.346710,-0.143904
23.400000,3.454831,-2.252449,10.869779,-2.469762,-1.336706,-1.935025,-1.842646,6.928029,6.081084,1.425327,1.007096,-0.163090,0.726956,-2.160384,-1.367030,16.264810,7.296271,3.035241,-0.164987,-0.872572,1.277897,2.786538,-0.449903,-0.207478
23.500000,3.278119,-2.263312,10.865990,-2.383958,-1.335096,-1.881277,-1.561727,7.030212,6.188199,1.578870,0.848520,-0.176491,0.701123,-2.283799,-1.468060,16.274514,7.173315,3.034001,-0.282233,-0.895704,1.317249,2.737107,-0.631332,-0.222249
23.600000,3.097687,-2.286724,10.862843,-2.288664,-1.347029,-1.841444,-1.279174,7.084933,6.295795,1.739234,0.597067,-0.023841,0.464592,-2.523715,-1.495322,16.232385,6.978536,3.012734,-0.435943,-0.933653,1.309473,2.554099,-0.880803,-0.198397
23.700000,2.914531,-2.326288,10.861950,-2.202484,-1.382519,-1.810643,-1.079247,7.136568,6.402803,1.736904,0.436608,0.340052,0.085281,-2.816972,-1.484467,16.005517,6.749610,3.084829,-0.661168,-0.939418,1.200870,2.412384,-1.163098,-0.320468
23.800000,2.732624,-2.384312,10.866664,-2.146874,-1.449463,-1.782947,-1.037972,7.261968,6.503890,1.444417,0.524151,0.688063,-0.340169,-3.091642,-1.470132,15.631008,6.594892,3.248706,-0.864908,-0.883271,0.971685,2.888984,-1.372575,-1.162101
23.900000,2.558633,-2.459495,10.882147,-2.140430,-1.550752,-1.756662,-1.096758,7.417171,6.542547,1.003860,0.706468,0.825392,-0.801906,2.909278,-1.462588,15.200097,6.531835,3.424606,-1.036676,-0.793142,0.678981,-2.317634,-1.405234,-2.630079
24.000000,2.398580,-2.548349,10.913045,-2.196414,-1.688342,-1.729509,-1.184798,7.561337,6.554287,0.631038,0.882770,0.846606,-1.241802,2.670483,-1.470226,14.877952,6.546173,3.519179,-1.168759,-0.686903,0.491392,-2.758775,-1.426699,-2.549629
24.100000,2.255213,-2.645093,10.963963,-2.316156,-1.859277,-1.700858,-1.268052,7.694346,6.576387,0.443797,1.045795,0.885418,-1.555141,2.528936,-1.495263,14.651758,6.587804,3.545454,-1.292770,-0.622274,0.284354,-2.838657,-1.358695,-2.707669
24.200000,2.125863,-2.742145,11.036986,-2.485884,-2.051227,-1.673410,-1.312508,7.824345,6.634361,0.493885,1.204638,1.008147,-1.685306,2.485257,-1.534103,14.441037,6.637372,3.549915,-1.479439,-0.594688,0.012377,-2.974658,-1.241849,-2.647568
24.300000,2.003740,-2.835151,11.132508,-2.684302,-2.250046,-1.648495,-1.271613,7.946158,6.728013,0.834259,1.235908,1.153695,-1.606876,2.531283,-1.597582,14.196677,6.670308,3.545426,-1.706412,-0.619560,-0.343041,-2.989576,-1.092714,-2.524812
24.400000,1.879113,-2.920923,11.251209,-2.887148,-2.444839,-1.628310,-1.065062,8.018987,6.851344,1.450983,0.886045,1.120813,-1.296573,2.669625,-1.686147,13.963225,6.630784,3.512373,-1.872753,-0.748441,-0.677576,-2.780938,-0.946272,-2.418778
24.500000,1.740777,-2.994220,11.389673,-3.067867,-2.628436,-1.616085,-0.814571,8.037306,6.947598,1.947811,0.273563,0.644036,-0.847614,2.839743,-1.749699,13.839698,6.517628,3.420488,-1.870870,-0.968610,-0.855339,-2.316347,-0.875398,-2.501030
24.600000,1.581735,-3.050432,11.541998,3.078325,-2.798986,-1.612308,-0.776990,8.093836,6.891626,2.003788,-0.030067,-0.174054,-0.436706,2.975042,-1.756075,13.818113,6.360234,3.268964,-1.677192,-1.210774,-0.878282,-1.683053,-0.793173,-2.860563
24.700000,1.402247,-3.086848,11.702578,2.994018,-2.955453,-1.616742,-0.788632,8.168168,6.719666,1.833020,-0.057098,-0.934899,-0.103912,-3.129800,-1.763941,13.809243,6.150909,3.107107,-1.407587,-1.421975,-0.802335,-1.129743,-0.532444,3.006041
24.800000,1.208652,-3.103180,11.864503,2.959151,-3.092104,-1.628331,-0.805236,8.256335,6.469752,1.617975,0.101946,-1.406523,0.112203,-2.917425,-1.782566,13.733835,6.041892,3.045757,-1.330618,-1.433188,-0.632614,-0.849894,-0.246406,2.703367
24.900000,1.010532,-3.101501,12.021722,2.962172,3.081641,-1.644860,-0.795002,8.349205,6.201535,1.507850,0.265907,-1.532436,0.202619,-2.714003,-1.815794,13.582560,6.025630,3.040104,-1.344760,-1.283088,-0.566038,-0.772404,-0.039770,2.493108
25.000000,0.816534,-3.086571,12.167240,2.986672,3.001281,-1.666061,-0.735843,8.430922,5.972264,1.546428,0.264800,-1.369674,0.179511,-2.541747,-1.871652,13.411640,5.978992,3.019609,-1.265359,-1.121526,-0.689320,-0.818831,0.122731,2.335456
25.100000,0.631132,-3.065760,12.288652,3.016076,2.944630,-1.693200,-0.629937,8.477682,5.804987,1.630932,0.010380,-0.988647,0.084923,-2.375868,-1.956686,13.258768,5.902105,2.967365,-1.048064,-0.978367,-0.939066,-0.934146,0.281140,2.186392
25.200000,0.454532,-3.045783,12.372779,3.038031,2.906285,-1.728802,-0.496692,8.467036,5.699482,1.563144,-0.445420,-0.535411,-0.014962,-2.187989,-2.062959,13.143808,5.820233,2.880086,-0.675923,-0.864635,-1.184893,-1.060356,0.464283,2.024688
25.300000,0.284631,-3.031075,12.410704,3.046998,2.886725,-1.775952,-0.376989,8.403034,5.635741,1.265378,-0.963126,-0.166932,-0.055275,-1.999931,-2.180750,13.075050,5.755991,2.760845,-0.188082,-0.807092,-1.355369,-1.152709,0.640801,1.841688
